{
"type": "FeatureCollection",
"name": "Stolen_Bikes",
"crs": { "type": "name", "properties": { "name": "urn:ogc:def:crs:OGC:1.3:CRS84" } },
"features": [
{ "type": "Feature", "properties": { "OBJECTID": 1900022, "REPORTNUM": 1900022, "NUMBIKESSTOLEN": 31, "STOLENVALUE": 232500.0, "NUMBIKESRECOVERED": 0, "RECOVEREDVALUE": 0.0, "ARREST": "No", "REPORTYEAR": 2019, "REPORTDATE": "2019-01-01T21:14:00Z", "ADDRESS": "44XX BROADWAY", "CITY": "BOULDER", "DISTRICT": "1   ", "BEAT": "1N1 " }, "geometry": { "type": "Point", "coordinates": [ -105.282149, 40.055318 ] } },
{ "type": "Feature", "properties": { "OBJECTID": 1900042, "REPORTNUM": 1900042, "NUMBIKESSTOLEN": 1, "STOLENVALUE": 500.0, "NUMBIKESRECOVERED": 0, "RECOVEREDVALUE": 0.0, "ARREST": "No", "REPORTYEAR": 2019, "REPORTDATE": "2019-01-02T17:44:00Z", "ADDRESS": "7XX GAPTER RD", "CITY": "BOULDER", "DISTRICT": "4   ", "BEAT": "4N5 " }, "geometry": { "type": "Point", "coordinates": [ -105.214623, 40.00142 ] } },
{ "type": "Feature", "properties": { "OBJECTID": 1900052, "REPORTNUM": 1900052, "NUMBIKESSTOLEN": 1, "STOLENVALUE": 3800.0, "NUMBIKESRECOVERED": 0, "RECOVEREDVALUE": 0.0, "ARREST": "No", "REPORTYEAR": 2019, "REPORTDATE": "2019-01-02T22:05:00Z", "ADDRESS": "29XX PEARL ST", "CITY": "BOULDER", "DISTRICT": "2   ", "BEAT": "2N5 " }, "geometry": { "type": "Point", "coordinates": [ -105.255884, 40.022827 ] } },
{ "type": "Feature", "properties": { "OBJECTID": 1900259, "REPORTNUM": 1900259, "NUMBIKESSTOLEN": 1, "STOLENVALUE": 1600.0, "NUMBIKESRECOVERED": 1, "RECOVEREDVALUE": 1600.0, "ARREST": "Yes", "REPORTYEAR": 2019, "REPORTDATE": "2019-01-09T04:08:00Z", "ADDRESS": "20XX 21ST ST", "CITY": "BOULDER", "DISTRICT": "3   ", "BEAT": "3N2 " }, "geometry": { "type": "Point", "coordinates": [ -105.268215, 40.020533 ] } },
{ "type": "Feature", "properties": { "OBJECTID": 1900358, "REPORTNUM": 1900358, "NUMBIKESSTOLEN": 1, "STOLENVALUE": 600.0, "NUMBIKESRECOVERED": 0, "RECOVEREDVALUE": 0.0, "ARREST": "No", "REPORTYEAR": 2019, "REPORTDATE": "2019-01-11T21:49:00Z", "ADDRESS": "13XX HIGH ST", "CITY": "BOULDER", "DISTRICT": "1   ", "BEAT": "1N6 " }, "geometry": { "type": "Point", "coordinates": [ -105.280119, 40.022482 ] } },
{ "type": "Feature", "properties": { "OBJECTID": 1900377, "REPORTNUM": 1900377, "NUMBIKESSTOLEN": 1, "STOLENVALUE": 1200.0, "NUMBIKESRECOVERED": 0, "RECOVEREDVALUE": 0.0, "ARREST": "No", "REPORTYEAR": 2019, "REPORTDATE": "2019-01-12T13:56:00Z", "ADDRESS": "26XX 30TH ST", "CITY": "BOULDER             ", "DISTRICT": "2   ", "BEAT": "2N5 " }, "geometry": { "type": "Point", "coordinates": [ -105.253706, 40.027516 ] } },
{ "type": "Feature", "properties": { "OBJECTID": 1900386, "REPORTNUM": 1900386, "NUMBIKESSTOLEN": 2, "STOLENVALUE": 780.0, "NUMBIKESRECOVERED": 0, "RECOVEREDVALUE": 0.0, "ARREST": "No", "REPORTYEAR": 2019, "REPORTDATE": "2019-01-12T22:21:00Z", "ADDRESS": "42XX MONROE DR", "CITY": "BOULDER", "DISTRICT": "4   ", "BEAT": "4N2 " }, "geometry": { "type": "Point", "coordinates": [ -105.242128, 40.005308 ] } },
{ "type": "Feature", "properties": { "OBJECTID": 1900514, "REPORTNUM": 1900514, "NUMBIKESSTOLEN": 1, "STOLENVALUE": 1000.0, "NUMBIKESRECOVERED": 0, "RECOVEREDVALUE": 0.0, "ARREST": "No", "REPORTYEAR": 2019, "REPORTDATE": "2019-01-16T19:55:00Z", "ADDRESS": "14TH ST/SPRUCE ST", "CITY": "BOULDER", "DISTRICT": "3M  ", "BEAT": "3M  " }, "geometry": { "type": "Point", "coordinates": [ -105.277737, 40.019432 ] } },
{ "type": "Feature", "properties": { "OBJECTID": 1900580, "REPORTNUM": 1900580, "NUMBIKESSTOLEN": 1, "STOLENVALUE": 2100.0, "NUMBIKESRECOVERED": 1, "RECOVEREDVALUE": 2100.0, "ARREST": "Yes", "REPORTYEAR": 2019, "REPORTDATE": "2019-01-18T10:50:00Z", "ADDRESS": "11XX MAXWELL AVE", "CITY": "BOULDER", "DISTRICT": "1   ", "BEAT": "1N5 " }, "geometry": { "type": "Point", "coordinates": [ -105.282538, 40.021797 ] } },
{ "type": "Feature", "properties": { "OBJECTID": 1900719, "REPORTNUM": 1900719, "NUMBIKESSTOLEN": 1, "STOLENVALUE": 300.0, "NUMBIKESRECOVERED": 1, "RECOVEREDVALUE": 300.0, "ARREST": "No", "REPORTYEAR": 2019, "REPORTDATE": "2019-01-22T13:26:00Z", "ADDRESS": "21XX GROVE CIR W", "CITY": "BOULDER", "DISTRICT": "3C  ", "BEAT": "3N5 " }, "geometry": { "type": "Point", "coordinates": [ -105.267094, 40.015456 ] } },
{ "type": "Feature", "properties": { "OBJECTID": 1900742, "REPORTNUM": 1900742, "NUMBIKESSTOLEN": 1, "STOLENVALUE": 540.0, "NUMBIKESRECOVERED": 0, "RECOVEREDVALUE": 0.0, "ARREST": "No", "REPORTYEAR": 2019, "REPORTDATE": "2019-01-22T23:13:00Z", "ADDRESS": "12XX ALPINE AVE", "CITY": "BOULDER", "DISTRICT": "1   ", "BEAT": "1N6 " }, "geometry": { "type": "Point", "coordinates": [ -105.280806, 40.025544 ] } },
{ "type": "Feature", "properties": { "OBJECTID": 1900846, "REPORTNUM": 1900846, "NUMBIKESSTOLEN": 1, "STOLENVALUE": 2500.0, "NUMBIKESRECOVERED": 1, "RECOVEREDVALUE": 2500.0, "ARREST": "Yes", "REPORTYEAR": 2019, "REPORTDATE": "2019-01-26T02:14:00Z", "ADDRESS": "28XX BROADWAY", "CITY": "BOULDER", "DISTRICT": "1   ", "BEAT": "1N5 " }, "geometry": { "type": "Point", "coordinates": [ -105.282117, 40.027311 ] } },
{ "type": "Feature", "properties": { "OBJECTID": 1900959, "REPORTNUM": 1900959, "NUMBIKESSTOLEN": 1, "STOLENVALUE": 500.0, "NUMBIKESRECOVERED": 0, "RECOVEREDVALUE": 0.0, "ARREST": "Yes", "REPORTYEAR": 2019, "REPORTDATE": "2019-01-29T13:16:00Z", "ADDRESS": "38TH ST/ARAPAHOE AVE", "CITY": "BOULDER", "DISTRICT": "2   ", "BEAT": "2N5 " }, "geometry": { "type": "Point", "coordinates": [ -105.246639, 40.014592 ] } },
{ "type": "Feature", "properties": { "OBJECTID": 1901037, "REPORTNUM": 1901037, "NUMBIKESSTOLEN": 1, "STOLENVALUE": 2000.0, "NUMBIKESRECOVERED": 0, "RECOVEREDVALUE": 0.0, "ARREST": "No", "REPORTYEAR": 2019, "REPORTDATE": "2019-01-31T04:46:00Z", "ADDRESS": "29XX SHADOW CREEK DR", "CITY": "BOULDER", "DISTRICT": "4   ", "BEAT": "4N1 " }, "geometry": { "type": "Point", "coordinates": [ -105.253641, 40.010298 ] } },
{ "type": "Feature", "properties": { "OBJECTID": 1901181, "REPORTNUM": 1901181, "NUMBIKESSTOLEN": 1, "STOLENVALUE": 700.0, "NUMBIKESRECOVERED": 0, "RECOVEREDVALUE": 0.0, "ARREST": "No", "REPORTYEAR": 2019, "REPORTDATE": "2019-02-03T15:11:21Z", "ADDRESS": "48XX EDISON AVE", "CITY": "BOULDER", "DISTRICT": "2   ", "BEAT": "2N4 " }, "geometry": { "type": "Point", "coordinates": [ -105.240949, 40.030998 ] } },
{ "type": "Feature", "properties": { "OBJECTID": 1901196, "REPORTNUM": 1901196, "NUMBIKESSTOLEN": 1, "STOLENVALUE": 150.0, "NUMBIKESRECOVERED": 1, "RECOVEREDVALUE": 150.0, "ARREST": "No", "REPORTYEAR": 2019, "REPORTDATE": "2019-02-03T20:49:00Z", "ADDRESS": "14XX S BROADWAY", "CITY": "BOULDER", "DISTRICT": "5   ", "BEAT": "5N5 " }, "geometry": { "type": "Point", "coordinates": [ -105.241332, 39.976175 ] } },
{ "type": "Feature", "properties": { "OBJECTID": 1901259, "REPORTNUM": 1901259, "NUMBIKESSTOLEN": 1, "STOLENVALUE": 1495.0, "NUMBIKESRECOVERED": 0, "RECOVEREDVALUE": 0.0, "ARREST": "No", "REPORTYEAR": 2019, "REPORTDATE": "2019-02-05T16:44:00Z", "ADDRESS": "29XX EAGLE WAY", "CITY": "BOULDER             ", "DISTRICT": "2   ", "BEAT": "2N2 " }, "geometry": { "type": "Point", "coordinates": [ -105.254314, 40.031175 ] } },
{ "type": "Feature", "properties": { "OBJECTID": 1901265, "REPORTNUM": 1901265, "NUMBIKESSTOLEN": 1, "STOLENVALUE": 400.0, "NUMBIKESRECOVERED": 0, "RECOVEREDVALUE": 0.0, "ARREST": "No", "REPORTYEAR": 2019, "REPORTDATE": "2019-02-05T19:10:00Z", "ADDRESS": "31XX IRIS AVE", "CITY": "BOULDER", "DISTRICT": "2   ", "BEAT": "2N3 " }, "geometry": { "type": "Point", "coordinates": [ -105.251602, 40.036434 ] } },
{ "type": "Feature", "properties": { "OBJECTID": 1901347, "REPORTNUM": 1901347, "NUMBIKESSTOLEN": 1, "STOLENVALUE": 2000.0, "NUMBIKESRECOVERED": 0, "RECOVEREDVALUE": 0.0, "ARREST": "No", "REPORTYEAR": 2019, "REPORTDATE": "2019-02-07T22:21:46Z", "ADDRESS": "14XX WALNUT ST", "CITY": "BOULDER", "DISTRICT": "3M  ", "BEAT": "3M  " }, "geometry": { "type": "Point", "coordinates": [ -105.277016, 40.017397 ] } },
{ "type": "Feature", "properties": { "OBJECTID": 1901350, "REPORTNUM": 1901350, "NUMBIKESSTOLEN": 1, "STOLENVALUE": 700.0, "NUMBIKESRECOVERED": 0, "RECOVEREDVALUE": 0.0, "ARREST": "No", "REPORTYEAR": 2019, "REPORTDATE": "2019-02-07T23:02:00Z", "ADDRESS": "19XX VASSAR CIR", "CITY": "BOULDER", "DISTRICT": "5   ", "BEAT": "5N3 " }, "geometry": { "type": "Point", "coordinates": [ -105.26657, 39.984983 ] } },
{ "type": "Feature", "properties": { "OBJECTID": 1901440, "REPORTNUM": 1901440, "NUMBIKESSTOLEN": 1, "STOLENVALUE": 3135.0, "NUMBIKESRECOVERED": 1, "RECOVEREDVALUE": 3135.0, "ARREST": "Yes", "REPORTYEAR": 2019, "REPORTDATE": "2019-02-10T08:56:00Z", "ADDRESS": "35XX FRONTIER AVE", "CITY": "BOULDER", "DISTRICT": "2   ", "BEAT": "2N5 " }, "geometry": { "type": "Point", "coordinates": [ -105.247484, 40.02273 ] } },
{ "type": "Feature", "properties": { "OBJECTID": 1901579, "REPORTNUM": 1901579, "NUMBIKESSTOLEN": 1, "STOLENVALUE": 100.0, "NUMBIKESRECOVERED": 0, "RECOVEREDVALUE": 0.0, "ARREST": "No", "REPORTYEAR": 2019, "REPORTDATE": "2019-02-13T22:21:00Z", "ADDRESS": "29XX E AURORA AVE", "CITY": "BOULDER", "DISTRICT": "4   ", "BEAT": "4N1 " }, "geometry": { "type": "Point", "coordinates": [ -105.253457, 40.003757 ] } },
{ "type": "Feature", "properties": { "OBJECTID": 1902012, "REPORTNUM": 1902012, "NUMBIKESSTOLEN": 1, "STOLENVALUE": 500.0, "NUMBIKESRECOVERED": 0, "RECOVEREDVALUE": 0.0, "ARREST": "No", "REPORTYEAR": 2019, "REPORTDATE": "2019-02-24T19:29:00Z", "ADDRESS": "19XX WALNUT ST", "CITY": "BOULDER", "DISTRICT": "3   ", "BEAT": "3N2 " }, "geometry": { "type": "Point", "coordinates": [ -105.270236, 40.018839 ] } },
{ "type": "Feature", "properties": { "OBJECTID": 1902034, "REPORTNUM": 1902034, "NUMBIKESSTOLEN": 1, "STOLENVALUE": 2400.0, "NUMBIKESRECOVERED": 0, "RECOVEREDVALUE": 0.0, "ARREST": "No", "REPORTYEAR": 2019, "REPORTDATE": "2019-02-25T14:08:00Z", "ADDRESS": "27XX MAPLETON AVE", "CITY": "BOULDER", "DISTRICT": "1   ", "BEAT": "1N6 " }, "geometry": { "type": "Point", "coordinates": [ -105.259556, 40.025342 ] } },
{ "type": "Feature", "properties": { "OBJECTID": 1902072, "REPORTNUM": 1902072, "NUMBIKESSTOLEN": 1, "STOLENVALUE": 2000.0, "NUMBIKESRECOVERED": 0, "RECOVEREDVALUE": 0.0, "ARREST": "No", "REPORTYEAR": 2019, "REPORTDATE": "2019-02-26T01:31:00Z", "ADDRESS": "28XX SHADOW CREEK DR", "CITY": "BOULDER", "DISTRICT": "4   ", "BEAT": "4N1 " }, "geometry": { "type": "Point", "coordinates": [ -105.255585, 40.010409 ] } },
{ "type": "Feature", "properties": { "OBJECTID": 1902338, "REPORTNUM": 1902338, "NUMBIKESSTOLEN": 1, "STOLENVALUE": 400.0, "NUMBIKESRECOVERED": 0, "RECOVEREDVALUE": 0.0, "ARREST": "No", "REPORTYEAR": 2019, "REPORTDATE": "2019-03-05T18:43:00Z", "ADDRESS": "13XX HIGH ST", "CITY": "BOULDER", "DISTRICT": "1   ", "BEAT": "1N6 " }, "geometry": { "type": "Point", "coordinates": [ -105.280119, 40.022482 ] } },
{ "type": "Feature", "properties": { "OBJECTID": 1902384, "REPORTNUM": 1902384, "NUMBIKESSTOLEN": 1, "STOLENVALUE": 1200.0, "NUMBIKESRECOVERED": 0, "RECOVEREDVALUE": 0.0, "ARREST": "No", "REPORTYEAR": 2019, "REPORTDATE": "2019-03-06T12:43:00Z", "ADDRESS": "7XX 35TH ST", "CITY": "BOULDER", "DISTRICT": "4   ", "BEAT": "4N2 " }, "geometry": { "type": "Point", "coordinates": [ -105.248336, 40.000065 ] } },
{ "type": "Feature", "properties": { "OBJECTID": 1902438, "REPORTNUM": 1902438, "NUMBIKESSTOLEN": 1, "STOLENVALUE": 1200.0, "NUMBIKESRECOVERED": 0, "RECOVEREDVALUE": 0.0, "ARREST": "No", "REPORTYEAR": 2019, "REPORTDATE": "2019-03-08T07:00:00Z", "ADDRESS": "BROADWAY/CANYON BLVD", "CITY": "BOULDER", "DISTRICT": "3M  ", "BEAT": "3M  " }, "geometry": { "type": "Point", "coordinates": [ -105.279303, 40.015822 ] } },
{ "type": "Feature", "properties": { "OBJECTID": 1902573, "REPORTNUM": 1902573, "NUMBIKESSTOLEN": 8, "STOLENVALUE": 7000.0, "NUMBIKESRECOVERED": 8, "RECOVEREDVALUE": 7000.0, "ARREST": "Yes", "REPORTYEAR": 2019, "REPORTDATE": "2019-03-11T07:06:00Z", "ADDRESS": "9XX UNIVERSITY AVE", "CITY": "BOULDER", "DISTRICT": "3C  ", "BEAT": "3H2 " }, "geometry": { "type": "Point", "coordinates": [ -105.281866, 40.010459 ] } },
{ "type": "Feature", "properties": { "OBJECTID": 1902716, "REPORTNUM": 1902716, "NUMBIKESSTOLEN": 1, "STOLENVALUE": 500.0, "NUMBIKESRECOVERED": 0, "RECOVEREDVALUE": 0.0, "ARREST": "Yes", "REPORTYEAR": 2019, "REPORTDATE": "2019-03-15T17:01:00Z", "ADDRESS": "9XX E MOORHEAD CIR", "CITY": "BOULDER", "DISTRICT": "5   ", "BEAT": "5N5 " }, "geometry": { "type": "Point", "coordinates": [ -105.235766, 39.980658 ] } },
{ "type": "Feature", "properties": { "OBJECTID": 1902742, "REPORTNUM": 1902742, "NUMBIKESSTOLEN": 1, "STOLENVALUE": 3100.0, "NUMBIKESRECOVERED": 0, "RECOVEREDVALUE": 0.0, "ARREST": "Yes", "REPORTYEAR": 2019, "REPORTDATE": "2019-03-16T03:03:00Z", "ADDRESS": "MAXWELL AVE/BROADWAY", "CITY": "BOULDER", "DISTRICT": "1   ", "BEAT": "1N6 " }, "geometry": { "type": "Point", "coordinates": [ -105.28131, 40.021816 ] } },
{ "type": "Feature", "properties": { "OBJECTID": 1902851, "REPORTNUM": 1902851, "NUMBIKESSTOLEN": 1, "STOLENVALUE": 500.0, "NUMBIKESRECOVERED": 0, "RECOVEREDVALUE": 0.0, "ARREST": "No", "REPORTYEAR": 2019, "REPORTDATE": "2019-03-18T12:50:00Z", "ADDRESS": "33XX 28TH ST", "CITY": "BOULDER", "DISTRICT": "1   ", "BEAT": "1N6 " }, "geometry": { "type": "Point", "coordinates": [ -105.258476, 40.03511 ] } },
{ "type": "Feature", "properties": { "OBJECTID": 1902912, "REPORTNUM": 1902912, "NUMBIKESSTOLEN": 2, "STOLENVALUE": 250.0, "NUMBIKESRECOVERED": 2, "RECOVEREDVALUE": 250.0, "ARREST": "No", "REPORTYEAR": 2019, "REPORTDATE": "2019-03-19T17:29:00Z", "ADDRESS": "9XX E MOORHEAD CIR", "CITY": "BOULDER", "DISTRICT": "5   ", "BEAT": "5N5 " }, "geometry": { "type": "Point", "coordinates": [ -105.235763, 39.98093 ] } },
{ "type": "Feature", "properties": { "OBJECTID": 1902938, "REPORTNUM": 1902938, "NUMBIKESSTOLEN": 1, "STOLENVALUE": 1019.0, "NUMBIKESRECOVERED": 0, "RECOVEREDVALUE": 0.0, "ARREST": "Yes", "REPORTYEAR": 2019, "REPORTDATE": "2019-03-19T22:18:00Z", "ADDRESS": "21XX 28TH ST", "CITY": "BOULDER", "DISTRICT": "2   ", "BEAT": "2N5 " }, "geometry": { "type": "Point", "coordinates": [ -105.258277, 40.02347 ] } },
{ "type": "Feature", "properties": { "OBJECTID": 1902972, "REPORTNUM": 1902972, "NUMBIKESSTOLEN": 1, "STOLENVALUE": 1299.99, "NUMBIKESRECOVERED": 0, "RECOVEREDVALUE": 0.0, "ARREST": "No", "REPORTYEAR": 2019, "REPORTDATE": "2019-03-20T21:14:00Z", "ADDRESS": "51XX TABLE MESA DR", "CITY": "BOULDER", "DISTRICT": "4   ", "BEAT": "4N4 " }, "geometry": { "type": "Point", "coordinates": [ -105.232305, 39.98689 ] } },
{ "type": "Feature", "properties": { "OBJECTID": 1903011, "REPORTNUM": 1903011, "NUMBIKESSTOLEN": 1, "STOLENVALUE": 3100.0, "NUMBIKESRECOVERED": 0, "RECOVEREDVALUE": 0.0, "ARREST": "Yes", "REPORTYEAR": 2019, "REPORTDATE": "2019-03-21T22:45:00Z", "ADDRESS": "12XX 28TH ST", "CITY": "BOULDER             ", "DISTRICT": "4   ", "BEAT": "4N1 " }, "geometry": { "type": "Point", "coordinates": [ -105.258524, 40.008129 ] } },
{ "type": "Feature", "properties": { "OBJECTID": 1903066, "REPORTNUM": 1903066, "NUMBIKESSTOLEN": 1, "STOLENVALUE": 1630.0, "NUMBIKESRECOVERED": 1, "RECOVEREDVALUE": 1630.0, "ARREST": "Yes", "REPORTYEAR": 2019, "REPORTDATE": "2019-03-23T00:03:00Z", "ADDRESS": "17XX 28TH ST", "CITY": "BOULDER", "DISTRICT": "3   ", "BEAT": "3N2 " }, "geometry": { "type": "Point", "coordinates": [ -105.258504, 40.018818 ] } },
{ "type": "Feature", "properties": { "OBJECTID": 1903382, "REPORTNUM": 1903382, "NUMBIKESSTOLEN": 1, "STOLENVALUE": 120.0, "NUMBIKESRECOVERED": 0, "RECOVEREDVALUE": 0.0, "ARREST": "No", "REPORTYEAR": 2019, "REPORTDATE": "2019-03-31T17:50:00Z", "ADDRESS": "28TH ST/TAFT DR", "CITY": "BOULDER", "DISTRICT": "3   ", "BEAT": "3N6 " }, "geometry": { "type": "Point", "coordinates": [ -105.258768, 40.010537 ] } },
{ "type": "Feature", "properties": { "OBJECTID": 1903463, "REPORTNUM": 1903463, "NUMBIKESSTOLEN": 1, "STOLENVALUE": 1700.0, "NUMBIKESRECOVERED": 0, "RECOVEREDVALUE": 0.0, "ARREST": "No", "REPORTYEAR": 2019, "REPORTDATE": "2019-04-02T18:09:00Z", "ADDRESS": "6XX MANHATTAN DR", "CITY": "BOULDER", "DISTRICT": "4   ", "BEAT": "4N6 " }, "geometry": { "type": "Point", "coordinates": [ -105.229351, 39.998636 ] } },
{ "type": "Feature", "properties": { "OBJECTID": 1903700, "REPORTNUM": 1903700, "NUMBIKESSTOLEN": 1, "STOLENVALUE": 1032.0, "NUMBIKESRECOVERED": 0, "RECOVEREDVALUE": 0.0, "ARREST": "No", "REPORTYEAR": 2019, "REPORTDATE": "2019-04-08T00:57:00Z", "ADDRESS": "14XX PEARL ST", "CITY": "BOULDER", "DISTRICT": "3M  ", "BEAT": "3M  " }, "geometry": { "type": "Point", "coordinates": [ -105.277357, 40.018421 ] } },
{ "type": "Feature", "properties": { "OBJECTID": 1903921, "REPORTNUM": 1903921, "NUMBIKESSTOLEN": 1, "STOLENVALUE": 2900.0, "NUMBIKESRECOVERED": 1, "RECOVEREDVALUE": 2900.0, "ARREST": "Yes", "REPORTYEAR": 2019, "REPORTDATE": "2019-04-13T04:43:00Z", "ADDRESS": "33XX MADISON AVE", "CITY": "BOULDER", "DISTRICT": "4   ", "BEAT": "4N2 " }, "geometry": { "type": "Point", "coordinates": [ -105.250129, 40.005965 ] } },
{ "type": "Feature", "properties": { "OBJECTID": 1904438, "REPORTNUM": 1904438, "NUMBIKESSTOLEN": 1, "STOLENVALUE": 429.0, "NUMBIKESRECOVERED": 0, "RECOVEREDVALUE": 0.0, "ARREST": "No", "REPORTYEAR": 2019, "REPORTDATE": "2019-04-25T14:55:00Z", "ADDRESS": "8XX PEARL ST", "CITY": "BOULDER", "DISTRICT": "3   ", "BEAT": "3N1 " }, "geometry": { "type": "Point", "coordinates": [ -105.285, 40.01682 ] } },
{ "type": "Feature", "properties": { "OBJECTID": 1904701, "REPORTNUM": 1904701, "NUMBIKESSTOLEN": 1, "STOLENVALUE": 200.0, "NUMBIKESRECOVERED": 0, "RECOVEREDVALUE": 0.0, "ARREST": "No", "REPORTYEAR": 2019, "REPORTDATE": "2019-05-01T20:29:00Z", "ADDRESS": "7XX MOHAWK DR", "CITY": "BOULDER", "DISTRICT": "4   ", "BEAT": "4N2 " }, "geometry": { "type": "Point", "coordinates": [ -105.236537, 40.002097 ] } },
{ "type": "Feature", "properties": { "OBJECTID": 1905219, "REPORTNUM": 1905219, "NUMBIKESSTOLEN": 1, "STOLENVALUE": 88.0, "NUMBIKESRECOVERED": 0, "RECOVEREDVALUE": 0.0, "ARREST": "No", "REPORTYEAR": 2019, "REPORTDATE": "2019-05-14T22:22:48Z", "ADDRESS": "15XX YARMOUTH AVE", "CITY": "BOULDER", "DISTRICT": "1   ", "BEAT": "1N2 " }, "geometry": { "type": "Point", "coordinates": [ -105.277638, 40.058276 ] } },
{ "type": "Feature", "properties": { "OBJECTID": 1905363, "REPORTNUM": 1905363, "NUMBIKESSTOLEN": 1, "STOLENVALUE": 660.0, "NUMBIKESRECOVERED": 1, "RECOVEREDVALUE": 660.0, "ARREST": "Yes", "REPORTYEAR": 2019, "REPORTDATE": "2019-05-18T15:59:00Z", "ADDRESS": "1XX PEARL ST", "CITY": "BOULDER", "DISTRICT": "3   ", "BEAT": "3N1 " }, "geometry": { "type": "Point", "coordinates": [ -105.294794, 40.013936 ] } },
{ "type": "Feature", "properties": { "OBJECTID": 1905659, "REPORTNUM": 1905659, "NUMBIKESSTOLEN": 1, "STOLENVALUE": 2640.0, "NUMBIKESRECOVERED": 1, "RECOVEREDVALUE": 2640.0, "ARREST": "Yes", "REPORTYEAR": 2019, "REPORTDATE": "2019-05-26T00:10:00Z", "ADDRESS": "17TH ST/HILLSIDE RD", "CITY": "BOULDER", "DISTRICT": "3   ", "BEAT": "CU  " }, "geometry": { "type": "Point", "coordinates": [ -105.272504, 40.011209 ] } },
{ "type": "Feature", "properties": { "OBJECTID": 1905907, "REPORTNUM": 1905907, "NUMBIKESSTOLEN": 1, "STOLENVALUE": 150.0, "NUMBIKESRECOVERED": 0, "RECOVEREDVALUE": 0.0, "ARREST": "No", "REPORTYEAR": 2019, "REPORTDATE": "2019-05-31T18:54:00Z", "ADDRESS": "12XX ALPINE AVE", "CITY": "BOULDER", "DISTRICT": "1   ", "BEAT": "1N6 " }, "geometry": { "type": "Point", "coordinates": [ -105.280806, 40.025544 ] } },
{ "type": "Feature", "properties": { "OBJECTID": 1905970, "REPORTNUM": 1905970, "NUMBIKESSTOLEN": 1, "STOLENVALUE": 350.0, "NUMBIKESRECOVERED": 1, "RECOVEREDVALUE": 350.0, "ARREST": "Yes", "REPORTYEAR": 2019, "REPORTDATE": "2019-06-02T04:31:00Z", "ADDRESS": "14XX FOLSOM ST", "CITY": "BOULDER", "DISTRICT": "3   ", "BEAT": "3N6 " }, "geometry": { "type": "Point", "coordinates": [ -105.263401, 40.011027 ] } },
{ "type": "Feature", "properties": { "OBJECTID": 1905979, "REPORTNUM": 1905979, "NUMBIKESSTOLEN": 1, "STOLENVALUE": 700.0, "NUMBIKESRECOVERED": 0, "RECOVEREDVALUE": 0.0, "ARREST": "No", "REPORTYEAR": 2019, "REPORTDATE": "2019-06-02T14:51:40Z", "ADDRESS": "16XX GROVE ST", "CITY": "BOULDER", "DISTRICT": "3C  ", "BEAT": "3N5 " }, "geometry": { "type": "Point", "coordinates": [ -105.273549, 40.015438 ] } },
{ "type": "Feature", "properties": { "OBJECTID": 1906188, "REPORTNUM": 1906188, "NUMBIKESSTOLEN": 1, "STOLENVALUE": 200.0, "NUMBIKESRECOVERED": 0, "RECOVEREDVALUE": 0.0, "ARREST": "Yes", "REPORTYEAR": 2019, "REPORTDATE": "2019-06-07T07:20:00Z", "ADDRESS": "20XX 55TH ST", "CITY": "BOULDER", "DISTRICT": "2   ", "BEAT": "2N6 " }, "geometry": { "type": "Point", "coordinates": [ -105.225446, 40.020545 ] } },
{ "type": "Feature", "properties": { "OBJECTID": 1906321, "REPORTNUM": 1906321, "NUMBIKESSTOLEN": 1, "STOLENVALUE": 100.0, "NUMBIKESRECOVERED": 0, "RECOVEREDVALUE": 0.0, "ARREST": "No", "REPORTYEAR": 2019, "REPORTDATE": "2019-06-11T01:46:00Z", "ADDRESS": "25XX SPRUCE ST", "CITY": "BOULDER", "DISTRICT": "3   ", "BEAT": "3N2 " }, "geometry": { "type": "Point", "coordinates": [ -105.262562, 40.022537 ] } },
{ "type": "Feature", "properties": { "OBJECTID": 1906358, "REPORTNUM": 1906358, "NUMBIKESSTOLEN": 2, "STOLENVALUE": 1700.0, "NUMBIKESRECOVERED": 0, "RECOVEREDVALUE": 0.0, "ARREST": "No", "REPORTYEAR": 2019, "REPORTDATE": "2019-06-11T20:46:00Z", "ADDRESS": "5XX MOHAWK DR", "CITY": "BOULDER", "DISTRICT": "4   ", "BEAT": "4N4 " }, "geometry": { "type": "Point", "coordinates": [ -105.236401, 39.997284 ] } },
{ "type": "Feature", "properties": { "OBJECTID": 1906423, "REPORTNUM": 1906423, "NUMBIKESSTOLEN": 1, "STOLENVALUE": 2100.0, "NUMBIKESRECOVERED": 1, "RECOVEREDVALUE": 2100.0, "ARREST": "Yes", "REPORTYEAR": 2019, "REPORTDATE": "2019-06-13T06:01:00Z", "ADDRESS": "UNIVERSITY AVE/11TH ST", "CITY": "BOULDER", "DISTRICT": "3C  ", "BEAT": "3H3 " }, "geometry": { "type": "Point", "coordinates": [ -105.27867, 40.010518 ] } },
{ "type": "Feature", "properties": { "OBJECTID": 1906643, "REPORTNUM": 1906643, "NUMBIKESSTOLEN": 1, "STOLENVALUE": 250.0, "NUMBIKESRECOVERED": 0, "RECOVEREDVALUE": 0.0, "ARREST": "No", "REPORTYEAR": 2019, "REPORTDATE": "2019-06-18T20:22:00Z", "ADDRESS": "10XX ARAPAHOE AVE", "CITY": "BOULDER", "DISTRICT": "3M  ", "BEAT": "3M  " }, "geometry": { "type": "Point", "coordinates": [ -105.281326, 40.013602 ] } },
{ "type": "Feature", "properties": { "OBJECTID": 1906645, "REPORTNUM": 1906645, "NUMBIKESSTOLEN": 1, "STOLENVALUE": 1000.0, "NUMBIKESRECOVERED": 0, "RECOVEREDVALUE": 0.0, "ARREST": "No", "REPORTYEAR": 2019, "REPORTDATE": "2019-06-18T20:32:00Z", "ADDRESS": "XX BOULDER CREEK PATH", "CITY": "BOULDER             ", "DISTRICT": "3   ", "BEAT": "3N3 " }, "geometry": { "type": "Point", "coordinates": [ -105.300155, 40.013609 ] } },
{ "type": "Feature", "properties": { "OBJECTID": 1906724, "REPORTNUM": 1906724, "NUMBIKESSTOLEN": 1, "STOLENVALUE": 453.0, "NUMBIKESRECOVERED": 0, "RECOVEREDVALUE": 0.0, "ARREST": "No", "REPORTYEAR": 2019, "REPORTDATE": "2019-06-20T17:07:00Z", "ADDRESS": "10XX ARAPAHOE AVE", "CITY": "BOULDER", "DISTRICT": "3C  ", "BEAT": "3H1 " }, "geometry": { "type": "Point", "coordinates": [ -105.280664, 40.013677 ] } },
{ "type": "Feature", "properties": { "OBJECTID": 1906821, "REPORTNUM": 1906821, "NUMBIKESSTOLEN": 1, "STOLENVALUE": 10000.0, "NUMBIKESRECOVERED": 0, "RECOVEREDVALUE": 0.0, "ARREST": "No", "REPORTYEAR": 2019, "REPORTDATE": "2019-06-22T23:02:00Z", "ADDRESS": "5XX 15TH ST", "CITY": "BOULDER", "DISTRICT": "5   ", "BEAT": "5N1 " }, "geometry": { "type": "Point", "coordinates": [ -105.273748, 39.99834 ] } },
{ "type": "Feature", "properties": { "OBJECTID": 1907078, "REPORTNUM": 1907078, "NUMBIKESSTOLEN": 1, "STOLENVALUE": 2100.0, "NUMBIKESRECOVERED": 0, "RECOVEREDVALUE": 0.0, "ARREST": "No", "REPORTYEAR": 2019, "REPORTDATE": "2019-06-28T18:37:00Z", "ADDRESS": "28TH FRONTAGE RD/E COLLEGE AVE", "CITY": "BOULDER", "DISTRICT": "4   ", "BEAT": "4N1 " }, "geometry": { "type": "Point", "coordinates": [ -105.258373, 40.00721 ] } },
{ "type": "Feature", "properties": { "OBJECTID": 1907105, "REPORTNUM": 1907105, "NUMBIKESSTOLEN": 1, "STOLENVALUE": 439.99, "NUMBIKESRECOVERED": 1, "RECOVEREDVALUE": 439.99, "ARREST": "Yes", "REPORTYEAR": 2019, "REPORTDATE": "2019-06-29T10:06:00Z", "ADDRESS": "BROADWAY/BASELINE RD", "CITY": "BOULDER", "DISTRICT": "5   ", "BEAT": "5N1 " }, "geometry": { "type": "Point", "coordinates": [ -105.26379, 40.000067 ] } },
{ "type": "Feature", "properties": { "OBJECTID": 1907386, "REPORTNUM": 1907386, "NUMBIKESSTOLEN": 1, "STOLENVALUE": 350.0, "NUMBIKESRECOVERED": 0, "RECOVEREDVALUE": 0.0, "ARREST": "No", "REPORTYEAR": 2019, "REPORTDATE": "2019-07-05T21:54:00Z", "ADDRESS": "27XX 29TH ST", "CITY": "BOULDER", "DISTRICT": "2   ", "BEAT": "2N5 " }, "geometry": { "type": "Point", "coordinates": [ -105.256065, 40.027521 ] } },
{ "type": "Feature", "properties": { "OBJECTID": 1907483, "REPORTNUM": 1907483, "NUMBIKESSTOLEN": 1, "STOLENVALUE": 500.0, "NUMBIKESRECOVERED": 1, "RECOVEREDVALUE": 500.0, "ARREST": "Yes", "REPORTYEAR": 2019, "REPORTDATE": "2019-07-08T13:37:00Z", "ADDRESS": "14XX PEARL ST", "CITY": "BOULDER", "DISTRICT": "3M  ", "BEAT": "3M  " }, "geometry": { "type": "Point", "coordinates": [ -105.276962, 40.018499 ] } },
{ "type": "Feature", "properties": { "OBJECTID": 1907742, "REPORTNUM": 1907742, "NUMBIKESSTOLEN": 1, "STOLENVALUE": 700.0, "NUMBIKESRECOVERED": 0, "RECOVEREDVALUE": 0.0, "ARREST": "No", "REPORTYEAR": 2019, "REPORTDATE": "2019-07-13T18:09:00Z", "ADDRESS": "26XX SHERWOOD CIR", "CITY": "BOULDER", "DISTRICT": "1   ", "BEAT": "1N4 " }, "geometry": { "type": "Point", "coordinates": [ -105.262357, 40.039332 ] } },
{ "type": "Feature", "properties": { "OBJECTID": 1907960, "REPORTNUM": 1907960, "NUMBIKESSTOLEN": 2, "STOLENVALUE": 3300.0, "NUMBIKESRECOVERED": 0, "RECOVEREDVALUE": 0.0, "ARREST": "No", "REPORTYEAR": 2019, "REPORTDATE": "2019-07-18T12:23:00Z", "ADDRESS": "20XX GRAPE AVE", "CITY": "BOULDER", "DISTRICT": "1   ", "BEAT": "1N6 " }, "geometry": { "type": "Point", "coordinates": [ -105.270097, 40.034116 ] } },
{ "type": "Feature", "properties": { "OBJECTID": 1907999, "REPORTNUM": 1907999, "NUMBIKESSTOLEN": 1, "STOLENVALUE": 500.0, "NUMBIKESRECOVERED": 0, "RECOVEREDVALUE": 0.0, "ARREST": "No", "REPORTYEAR": 2019, "REPORTDATE": "2019-07-19T15:34:00Z", "ADDRESS": "32XX 34TH ST", "CITY": "BOULDER", "DISTRICT": "2   ", "BEAT": "2N3 " }, "geometry": { "type": "Point", "coordinates": [ -105.248977, 40.0339 ] } },
{ "type": "Feature", "properties": { "OBJECTID": 1908063, "REPORTNUM": 1908063, "NUMBIKESSTOLEN": 2, "STOLENVALUE": 840.0, "NUMBIKESRECOVERED": 0, "RECOVEREDVALUE": 0.0, "ARREST": "No", "REPORTYEAR": 2019, "REPORTDATE": "2019-07-21T16:49:00Z", "ADDRESS": "32XX MEREDITH ST", "CITY": "BOULDER", "DISTRICT": "2   ", "BEAT": "2N5 " }, "geometry": { "type": "Point", "coordinates": [ -105.251745, 40.028366 ] } },
{ "type": "Feature", "properties": { "OBJECTID": 1908106, "REPORTNUM": 1908106, "NUMBIKESSTOLEN": 1, "STOLENVALUE": 220.0, "NUMBIKESRECOVERED": 1, "RECOVEREDVALUE": 220.0, "ARREST": "Yes", "REPORTYEAR": 2019, "REPORTDATE": "2019-07-22T22:28:00Z", "ADDRESS": "9XX GRANDVIEW AVE", "CITY": "BOULDER", "DISTRICT": "3C  ", "BEAT": "3H1 " }, "geometry": { "type": "Point", "coordinates": [ -105.281115, 40.011317 ] } },
{ "type": "Feature", "properties": { "OBJECTID": 1908322, "REPORTNUM": 1908322, "NUMBIKESSTOLEN": 1, "STOLENVALUE": 540.0, "NUMBIKESRECOVERED": 1, "RECOVEREDVALUE": 540.0, "ARREST": "No", "REPORTYEAR": 2019, "REPORTDATE": "2019-07-27T13:43:00Z", "ADDRESS": "15TH ST/CANYON BLVD", "CITY": "BOULDER", "DISTRICT": "3C  ", "BEAT": "3N5 " }, "geometry": { "type": "Point", "coordinates": [ -105.27537, 40.016622 ] } },
{ "type": "Feature", "properties": { "OBJECTID": 1908353, "REPORTNUM": 1908353, "NUMBIKESSTOLEN": 1, "STOLENVALUE": 1630.0, "NUMBIKESRECOVERED": 0, "RECOVEREDVALUE": 0.0, "ARREST": "No", "REPORTYEAR": 2019, "REPORTDATE": "2019-07-27T22:52:00Z", "ADDRESS": "17XX 28TH ST", "CITY": "BOULDER", "DISTRICT": "3   ", "BEAT": "3N2 " }, "geometry": { "type": "Point", "coordinates": [ -105.258504, 40.018818 ] } },
{ "type": "Feature", "properties": { "OBJECTID": 1908511, "REPORTNUM": 1908511, "NUMBIKESSTOLEN": 1, "STOLENVALUE": 500.0, "NUMBIKESRECOVERED": 0, "RECOVEREDVALUE": 0.0, "ARREST": "No", "REPORTYEAR": 2019, "REPORTDATE": "2019-07-31T05:26:00Z", "ADDRESS": "BROADWAY/WALNUT ST", "CITY": "BOULDER", "DISTRICT": "3M  ", "BEAT": "3M  " }, "geometry": { "type": "Point", "coordinates": [ -105.279657, 40.016862 ] } },
{ "type": "Feature", "properties": { "OBJECTID": 1908512, "REPORTNUM": 1908512, "NUMBIKESSTOLEN": 2, "STOLENVALUE": 629.0, "NUMBIKESRECOVERED": 0, "RECOVEREDVALUE": 0.0, "ARREST": "No", "REPORTYEAR": 2019, "REPORTDATE": "2019-07-31T05:11:00Z", "ADDRESS": "24XX BASELINE RD", "CITY": "BOULDER", "DISTRICT": "5   ", "BEAT": "5N1 " }, "geometry": { "type": "Point", "coordinates": [ -105.26255, 40.000116 ] } },
{ "type": "Feature", "properties": { "OBJECTID": 1908917, "REPORTNUM": 1908917, "NUMBIKESSTOLEN": 1, "STOLENVALUE": 250.0, "NUMBIKESRECOVERED": 0, "RECOVEREDVALUE": 0.0, "ARREST": "No", "REPORTYEAR": 2019, "REPORTDATE": "2019-08-09T00:29:00Z", "ADDRESS": "17XX 21ST ST", "CITY": "BOULDER", "DISTRICT": "3C  ", "BEAT": "3N5 " }, "geometry": { "type": "Point", "coordinates": [ -105.267802, 40.017065 ] } },
{ "type": "Feature", "properties": { "OBJECTID": 1908962, "REPORTNUM": 1908962, "NUMBIKESSTOLEN": 1, "STOLENVALUE": 100.0, "NUMBIKESRECOVERED": 0, "RECOVEREDVALUE": 0.0, "ARREST": "No", "REPORTYEAR": 2019, "REPORTDATE": "2019-08-10T02:20:00Z", "ADDRESS": "32XX 28TH ST", "CITY": "BOULDER", "DISTRICT": "1   ", "BEAT": "1N6 " }, "geometry": { "type": "Point", "coordinates": [ -105.258472, 40.034011 ] } },
{ "type": "Feature", "properties": { "OBJECTID": 1908981, "REPORTNUM": 1908981, "NUMBIKESSTOLEN": 1, "STOLENVALUE": 300.0, "NUMBIKESRECOVERED": 0, "RECOVEREDVALUE": 0.0, "ARREST": "No", "REPORTYEAR": 2019, "REPORTDATE": "2019-08-09T13:54:00Z", "ADDRESS": "26XX MAPLETON AVE", "CITY": "BOULDER", "DISTRICT": "1   ", "BEAT": "1N6 " }, "geometry": { "type": "Point", "coordinates": [ -105.261372, 40.024981 ] } },
{ "type": "Feature", "properties": { "OBJECTID": 1909028, "REPORTNUM": 1909028, "NUMBIKESSTOLEN": 1, "STOLENVALUE": 600.0, "NUMBIKESRECOVERED": 0, "RECOVEREDVALUE": 0.0, "ARREST": "Yes", "REPORTYEAR": 2019, "REPORTDATE": "2019-08-11T17:55:00Z", "ADDRESS": "17XX BROADWAY", "CITY": "BOULDER", "DISTRICT": "3M  ", "BEAT": "3M  " }, "geometry": { "type": "Point", "coordinates": [ -105.279172, 40.01544 ] } },
{ "type": "Feature", "properties": { "OBJECTID": 1909075, "REPORTNUM": 1909075, "NUMBIKESSTOLEN": 1, "STOLENVALUE": 1.0, "NUMBIKESRECOVERED": 0, "RECOVEREDVALUE": 0.0, "ARREST": "No", "REPORTYEAR": 2019, "REPORTDATE": "2019-08-12T18:22:00Z", "ADDRESS": "31XX 17TH ST", "CITY": "BOULDER", "DISTRICT": "1   ", "BEAT": "1N6 " }, "geometry": { "type": "Point", "coordinates": [ -105.275159, 40.032388 ] } },
{ "type": "Feature", "properties": { "OBJECTID": 1909187, "REPORTNUM": 1909187, "NUMBIKESSTOLEN": 1, "STOLENVALUE": 400.0, "NUMBIKESRECOVERED": 0, "RECOVEREDVALUE": 0.0, "ARREST": "No", "REPORTYEAR": 2019, "REPORTDATE": "2019-08-14T22:02:00Z", "ADDRESS": "17XX 16TH ST", "CITY": "BOULDER", "DISTRICT": "3C  ", "BEAT": "3N5 " }, "geometry": { "type": "Point", "coordinates": [ -105.273827, 40.016379 ] } },
{ "type": "Feature", "properties": { "OBJECTID": 1909272, "REPORTNUM": 1909272, "NUMBIKESSTOLEN": 1, "STOLENVALUE": 1100.0, "NUMBIKESRECOVERED": 0, "RECOVEREDVALUE": 0.0, "ARREST": "No", "REPORTYEAR": 2019, "REPORTDATE": "2019-08-16T18:18:00Z", "ADDRESS": "13XX 28TH ST", "CITY": "BOULDER", "DISTRICT": "4   ", "BEAT": "4N1 " }, "geometry": { "type": "Point", "coordinates": [ -105.258626, 40.010961 ] } },
{ "type": "Feature", "properties": { "OBJECTID": 1909984, "REPORTNUM": 1909984, "NUMBIKESSTOLEN": 1, "STOLENVALUE": 3263.17, "NUMBIKESRECOVERED": 0, "RECOVEREDVALUE": 0.0, "ARREST": "No", "REPORTYEAR": 2019, "REPORTDATE": "2019-09-02T15:46:38Z", "ADDRESS": "1XX MANHATTAN DR", "CITY": "BOULDER", "DISTRICT": "4   ", "BEAT": "4N6 " }, "geometry": { "type": "Point", "coordinates": [ -105.227524, 39.988457 ] } },
{ "type": "Feature", "properties": { "OBJECTID": 1910010, "REPORTNUM": 1910010, "NUMBIKESSTOLEN": 1, "STOLENVALUE": 2000.0, "NUMBIKESRECOVERED": 1, "RECOVEREDVALUE": 2000.0, "ARREST": "Yes", "REPORTYEAR": 2019, "REPORTDATE": "2019-08-29T01:44:00Z", "ADDRESS": "6XX 30TH ST", "CITY": "BOULDER", "DISTRICT": "4   ", "BEAT": "4N1 " }, "geometry": { "type": "Point", "coordinates": [ -105.253056, 39.999722 ] } },
{ "type": "Feature", "properties": { "OBJECTID": 1910139, "REPORTNUM": 1910139, "NUMBIKESSTOLEN": 1, "STOLENVALUE": 659.99, "NUMBIKESRECOVERED": 0, "RECOVEREDVALUE": 0.0, "ARREST": "No", "REPORTYEAR": 2019, "REPORTDATE": "2019-08-30T20:37:00Z", "ADDRESS": "30XX BROADWAY", "CITY": "BOULDER", "DISTRICT": "1   ", "BEAT": "1N6 " }, "geometry": { "type": "Point", "coordinates": [ -105.282049, 40.030723 ] } },
{ "type": "Feature", "properties": { "OBJECTID": 1910142, "REPORTNUM": 1910142, "NUMBIKESSTOLEN": 1, "STOLENVALUE": 1.0, "NUMBIKESRECOVERED": 1, "RECOVEREDVALUE": 1.0, "ARREST": "Yes", "REPORTYEAR": 2019, "REPORTDATE": "2019-08-31T02:35:00Z", "ADDRESS": "28XX PEARL ST", "CITY": "BOULDER", "DISTRICT": "2   ", "BEAT": "2N5 " }, "geometry": { "type": "Point", "coordinates": [ -105.258306, 40.022242 ] } },
{ "type": "Feature", "properties": { "OBJECTID": 1910239, "REPORTNUM": 1910239, "NUMBIKESSTOLEN": 1, "STOLENVALUE": 650.0, "NUMBIKESRECOVERED": 1, "RECOVEREDVALUE": 650.0, "ARREST": "Yes", "REPORTYEAR": 2019, "REPORTDATE": "2019-09-01T13:18:00Z", "ADDRESS": "31XX 28TH ST", "CITY": "BOULDER", "DISTRICT": "1   ", "BEAT": "1N6 " }, "geometry": { "type": "Point", "coordinates": [ -105.258466, 40.032557 ] } },
{ "type": "Feature", "properties": { "OBJECTID": 1910419, "REPORTNUM": 1910419, "NUMBIKESSTOLEN": 1, "STOLENVALUE": 150.0, "NUMBIKESRECOVERED": 0, "RECOVEREDVALUE": 0.0, "ARREST": "No", "REPORTYEAR": 2019, "REPORTDATE": "2019-09-05T12:43:00Z", "ADDRESS": "26XX 9TH ST", "CITY": "BOULDER", "DISTRICT": "1   ", "BEAT": "1N5 " }, "geometry": { "type": "Point", "coordinates": [ -105.285621, 40.024508 ] } },
{ "type": "Feature", "properties": { "OBJECTID": 1910430, "REPORTNUM": 1910430, "NUMBIKESSTOLEN": 1, "STOLENVALUE": 778.32, "NUMBIKESRECOVERED": 1, "RECOVEREDVALUE": 778.32, "ARREST": "Yes", "REPORTYEAR": 2019, "REPORTDATE": "2019-09-05T15:05:00Z", "ADDRESS": "17XX BROADWAY", "CITY": "BOULDER", "DISTRICT": "3M  ", "BEAT": "3M  " }, "geometry": { "type": "Point", "coordinates": [ -105.279172, 40.01544 ] } },
{ "type": "Feature", "properties": { "OBJECTID": 1910457, "REPORTNUM": 1910457, "NUMBIKESSTOLEN": 1, "STOLENVALUE": 400.0, "NUMBIKESRECOVERED": 1, "RECOVEREDVALUE": 400.0, "ARREST": "No", "REPORTYEAR": 2019, "REPORTDATE": "2019-09-05T21:35:00Z", "ADDRESS": "15TH ST/ARAPAHOE AVE", "CITY": "BOULDER", "DISTRICT": "3C  ", "BEAT": "3N5 " }, "geometry": { "type": "Point", "coordinates": [ -105.27461, 40.014588 ] } },
{ "type": "Feature", "properties": { "OBJECTID": 1910519, "REPORTNUM": 1910519, "NUMBIKESSTOLEN": 1, "STOLENVALUE": 704.8, "NUMBIKESRECOVERED": 0, "RECOVEREDVALUE": 0.0, "ARREST": "No", "REPORTYEAR": 2019, "REPORTDATE": "2019-09-06T20:10:00Z", "ADDRESS": "9XX 30TH ST", "CITY": "BOULDER", "DISTRICT": "4   ", "BEAT": "4N1 " }, "geometry": { "type": "Point", "coordinates": [ -105.253138, 40.004674 ] } },
{ "type": "Feature", "properties": { "OBJECTID": 1910835, "REPORTNUM": 1910835, "NUMBIKESSTOLEN": 1, "STOLENVALUE": 300.0, "NUMBIKESRECOVERED": 1, "RECOVEREDVALUE": 300.0, "ARREST": "No", "REPORTYEAR": 2019, "REPORTDATE": "2019-09-12T22:15:00Z", "ADDRESS": "29XX E AURORA AVE", "CITY": "BOULDER             ", "DISTRICT": "4   ", "BEAT": "4N1 " }, "geometry": { "type": "Point", "coordinates": [ -105.253457, 40.003757 ] } },
{ "type": "Feature", "properties": { "OBJECTID": 1910864, "REPORTNUM": 1910864, "NUMBIKESSTOLEN": 1, "STOLENVALUE": 2000.0, "NUMBIKESRECOVERED": 0, "RECOVEREDVALUE": 0.0, "ARREST": "No", "REPORTYEAR": 2019, "REPORTDATE": "2019-09-13T12:23:00Z", "ADDRESS": "17XX BROADWAY", "CITY": "BOULDER", "DISTRICT": "3M  ", "BEAT": "3M  " }, "geometry": { "type": "Point", "coordinates": [ -105.278776, 40.01453 ] } },
{ "type": "Feature", "properties": { "OBJECTID": 1911077, "REPORTNUM": 1911077, "NUMBIKESSTOLEN": 1, "STOLENVALUE": 699.0, "NUMBIKESRECOVERED": 0, "RECOVEREDVALUE": 0.0, "ARREST": "No", "REPORTYEAR": 2019, "REPORTDATE": "2019-09-18T05:08:00Z", "ADDRESS": "28XX SUNDOWN LN", "CITY": "BOULDER", "DISTRICT": "4   ", "BEAT": "4N1 " }, "geometry": { "type": "Point", "coordinates": [ -105.25684, 40.009756 ] } },
{ "type": "Feature", "properties": { "OBJECTID": 1911138, "REPORTNUM": 1911138, "NUMBIKESSTOLEN": 1, "STOLENVALUE": 650.0, "NUMBIKESRECOVERED": 0, "RECOVEREDVALUE": 0.0, "ARREST": "Yes", "REPORTYEAR": 2019, "REPORTDATE": "2019-09-19T03:49:00Z", "ADDRESS": "32XX AIRPORT RD", "CITY": "BOULDER COUNTY", "DISTRICT": "    ", "BEAT": "    " }, "geometry": { "type": "Point", "coordinates": [ -105.154404, 40.160899 ] } },
{ "type": "Feature", "properties": { "OBJECTID": 1911140, "REPORTNUM": 1911140, "NUMBIKESSTOLEN": 1, "STOLENVALUE": 200.0, "NUMBIKESRECOVERED": 0, "RECOVEREDVALUE": 0.0, "ARREST": "No", "REPORTYEAR": 2019, "REPORTDATE": "2019-09-19T04:03:00Z", "ADDRESS": "20XX MAPLETON AVE", "CITY": "BOULDER", "DISTRICT": "1   ", "BEAT": "1N6 " }, "geometry": { "type": "Point", "coordinates": [ -105.270625, 40.023078 ] } },
{ "type": "Feature", "properties": { "OBJECTID": 1911230, "REPORTNUM": 1911230, "NUMBIKESSTOLEN": 1, "STOLENVALUE": 2500.0, "NUMBIKESRECOVERED": 0, "RECOVEREDVALUE": 0.0, "ARREST": "No", "REPORTYEAR": 2019, "REPORTDATE": "2019-09-21T04:30:00Z", "ADDRESS": "20XX 23RD ST", "CITY": "BOULDER", "DISTRICT": "3   ", "BEAT": "3N2 " }, "geometry": { "type": "Point", "coordinates": [ -105.265737, 40.021577 ] } },
{ "type": "Feature", "properties": { "OBJECTID": 1911432, "REPORTNUM": 1911432, "NUMBIKESSTOLEN": 1, "STOLENVALUE": 500.0, "NUMBIKESRECOVERED": 0, "RECOVEREDVALUE": 0.0, "ARREST": "No", "REPORTYEAR": 2019, "REPORTDATE": "2019-09-25T13:53:00Z", "ADDRESS": "31XX EASTWOOD CT", "CITY": "BOULDER", "DISTRICT": "1   ", "BEAT": "1N6 " }, "geometry": { "type": "Point", "coordinates": [ -105.261091, 40.031356 ] } },
{ "type": "Feature", "properties": { "OBJECTID": 1911502, "REPORTNUM": 1911502, "NUMBIKESSTOLEN": 1, "STOLENVALUE": 150.0, "NUMBIKESRECOVERED": 0, "RECOVEREDVALUE": 0.0, "ARREST": "No", "REPORTYEAR": 2019, "REPORTDATE": "2019-09-26T18:21:00Z", "ADDRESS": "7XX 29TH ST", "CITY": "BOULDER", "DISTRICT": "    ", "BEAT": "    " }, "geometry": { "type": "Point", "coordinates": [ -105.255939, 40.000456 ] } },
{ "type": "Feature", "properties": { "OBJECTID": 1911528, "REPORTNUM": 1911528, "NUMBIKESSTOLEN": 1, "STOLENVALUE": 1400.0, "NUMBIKESRECOVERED": 1, "RECOVEREDVALUE": 1400.0, "ARREST": "No", "REPORTYEAR": 2019, "REPORTDATE": "2019-09-27T12:36:00Z", "ADDRESS": "46XX INGRAM CT", "CITY": "BOULDER", "DISTRICT": "5   ", "BEAT": "5N2 " }, "geometry": { "type": "Point", "coordinates": [ -105.23932, 39.987037 ] } },
{ "type": "Feature", "properties": { "OBJECTID": 1911691, "REPORTNUM": 1911691, "NUMBIKESSTOLEN": 1, "STOLENVALUE": 200.0, "NUMBIKESRECOVERED": 0, "RECOVEREDVALUE": 0.0, "ARREST": "No", "REPORTYEAR": 2019, "REPORTDATE": "2019-09-30T19:53:00Z", "ADDRESS": "7XX 10TH ST", "CITY": "BOULDER", "DISTRICT": "3C  ", "BEAT": "3H9 " }, "geometry": { "type": "Point", "coordinates": [ -105.279831, 40.001328 ] } },
{ "type": "Feature", "properties": { "OBJECTID": 1911802, "REPORTNUM": 1911802, "NUMBIKESSTOLEN": 14, "STOLENVALUE": 67024.67, "NUMBIKESRECOVERED": 0, "RECOVEREDVALUE": 0.0, "ARREST": "No", "REPORTYEAR": 2019, "REPORTDATE": "2019-10-03T10:36:00Z", "ADDRESS": "27XX SPRUCE ST", "CITY": "BOULDER", "DISTRICT": "3   ", "BEAT": "3N2 " }, "geometry": { "type": "Point", "coordinates": [ -105.259614, 40.023204 ] } },
{ "type": "Feature", "properties": { "OBJECTID": 1911805, "REPORTNUM": 1911805, "NUMBIKESSTOLEN": 1, "STOLENVALUE": 7200.0, "NUMBIKESRECOVERED": 0, "RECOVEREDVALUE": 0.0, "ARREST": "No", "REPORTYEAR": 2019, "REPORTDATE": "2019-10-03T13:13:00Z", "ADDRESS": "26XX CANYON BLVD", "CITY": "BOULDER", "DISTRICT": "3   ", "BEAT": "3N2 " }, "geometry": { "type": "Point", "coordinates": [ -105.260451, 40.017409 ] } },
{ "type": "Feature", "properties": { "OBJECTID": 1911878, "REPORTNUM": 1911878, "NUMBIKESSTOLEN": 1, "STOLENVALUE": 557.0, "NUMBIKESRECOVERED": 0, "RECOVEREDVALUE": 0.0, "ARREST": "No", "REPORTYEAR": 2019, "REPORTDATE": "2019-10-05T02:27:30Z", "ADDRESS": "18XX 13TH ST", "CITY": "BOULDER", "DISTRICT": "3M  ", "BEAT": "3M  " }, "geometry": { "type": "Point", "coordinates": [ -105.278047, 40.01619 ] } },
{ "type": "Feature", "properties": { "OBJECTID": 1911960, "REPORTNUM": 1911960, "NUMBIKESSTOLEN": 1, "STOLENVALUE": 900.0, "NUMBIKESRECOVERED": 0, "RECOVEREDVALUE": 0.0, "ARREST": "No", "REPORTYEAR": 2019, "REPORTDATE": "2019-10-06T19:55:53Z", "ADDRESS": "31XX PEARL PKWY", "CITY": "BOULDER", "DISTRICT": "2   ", "BEAT": "2N5 " }, "geometry": { "type": "Point", "coordinates": [ -105.251778, 40.023618 ] } },
{ "type": "Feature", "properties": { "OBJECTID": 1911964, "REPORTNUM": 1911964, "NUMBIKESSTOLEN": 6, "STOLENVALUE": 27354.0, "NUMBIKESRECOVERED": 0, "RECOVEREDVALUE": 0.0, "ARREST": "No", "REPORTYEAR": 2019, "REPORTDATE": "2019-10-06T21:30:00Z", "ADDRESS": "33XX ARAPAHOE AVE", "CITY": "BOULDER", "DISTRICT": "2   ", "BEAT": "2N5 " }, "geometry": { "type": "Point", "coordinates": [ -105.250114, 40.014735 ] } },
{ "type": "Feature", "properties": { "OBJECTID": 1912066, "REPORTNUM": 1912066, "NUMBIKESSTOLEN": 2, "STOLENVALUE": 3599.0, "NUMBIKESRECOVERED": 0, "RECOVEREDVALUE": 0.0, "ARREST": "No", "REPORTYEAR": 2019, "REPORTDATE": "2019-10-09T15:57:00Z", "ADDRESS": "8XX WALNUT ST", "CITY": "BOULDER", "DISTRICT": "3   ", "BEAT": "3N1 " }, "geometry": { "type": "Point", "coordinates": [ -105.284398, 40.015876 ] } },
{ "type": "Feature", "properties": { "OBJECTID": 1912209, "REPORTNUM": 1912209, "NUMBIKESSTOLEN": 1, "STOLENVALUE": 300.0, "NUMBIKESRECOVERED": 0, "RECOVEREDVALUE": 0.0, "ARREST": "No", "REPORTYEAR": 2019, "REPORTDATE": "2019-10-13T07:18:00Z", "ADDRESS": "22ND ST/BASELINE RD", "CITY": "BOULDER", "DISTRICT": "5   ", "BEAT": "5N1 " }, "geometry": { "type": "Point", "coordinates": [ -105.26509, 40.000084 ] } },
{ "type": "Feature", "properties": { "OBJECTID": 1912321, "REPORTNUM": 1912321, "NUMBIKESSTOLEN": 2, "STOLENVALUE": 7500.0, "NUMBIKESRECOVERED": 0, "RECOVEREDVALUE": 0.0, "ARREST": "No", "REPORTYEAR": 2019, "REPORTDATE": "2019-10-15T18:09:00Z", "ADDRESS": "19XX 30TH ST", "CITY": "BOULDER", "DISTRICT": "2   ", "BEAT": "2N5 " }, "geometry": { "type": "Point", "coordinates": [ -105.253606, 40.02053 ] } },
{ "type": "Feature", "properties": { "OBJECTID": 1912345, "REPORTNUM": 1912345, "NUMBIKESSTOLEN": 1, "STOLENVALUE": 1800.0, "NUMBIKESRECOVERED": 0, "RECOVEREDVALUE": 0.0, "ARREST": "No", "REPORTYEAR": 2019, "REPORTDATE": "2019-10-16T01:25:00Z", "ADDRESS": "9XX BASELINE RD", "CITY": "BOULDER", "DISTRICT": "5   ", "BEAT": "5N1 " }, "geometry": { "type": "Point", "coordinates": [ -105.281937, 40.00004 ] } },
{ "type": "Feature", "properties": { "OBJECTID": 1912430, "REPORTNUM": 1912430, "NUMBIKESSTOLEN": 1, "STOLENVALUE": 12000.0, "NUMBIKESRECOVERED": 1, "RECOVEREDVALUE": 12000.0, "ARREST": "No", "REPORTYEAR": 2019, "REPORTDATE": "2019-10-18T12:49:00Z", "ADDRESS": "18XX PEARL ST", "CITY": "BOULDER", "DISTRICT": "3   ", "BEAT": "3N2 " }, "geometry": { "type": "Point", "coordinates": [ -105.27178, 40.019548 ] } },
{ "type": "Feature", "properties": { "OBJECTID": 1912526, "REPORTNUM": 1912526, "NUMBIKESSTOLEN": 1, "STOLENVALUE": 100.0, "NUMBIKESRECOVERED": 0, "RECOVEREDVALUE": 0.0, "ARREST": "No", "REPORTYEAR": 2019, "REPORTDATE": "2019-10-20T21:38:45Z", "ADDRESS": "18XX ARAPAHOE AVE", "CITY": "BOULDER", "DISTRICT": "3C  ", "BEAT": "3N5 " }, "geometry": { "type": "Point", "coordinates": [ -105.271089, 40.014622 ] } },
{ "type": "Feature", "properties": { "OBJECTID": 1912534, "REPORTNUM": 1912534, "NUMBIKESSTOLEN": 1, "STOLENVALUE": 1000.0, "NUMBIKESRECOVERED": 0, "RECOVEREDVALUE": 0.0, "ARREST": "Yes", "REPORTYEAR": 2019, "REPORTDATE": "2019-10-21T04:45:00Z", "ADDRESS": "31XX 28TH ST", "CITY": "BOULDER             ", "DISTRICT": "1   ", "BEAT": "1N6 " }, "geometry": { "type": "Point", "coordinates": [ -105.258458, 40.031282 ] } },
{ "type": "Feature", "properties": { "OBJECTID": 1912836, "REPORTNUM": 1912836, "NUMBIKESSTOLEN": 1, "STOLENVALUE": 280.0, "NUMBIKESRECOVERED": 0, "RECOVEREDVALUE": 0.0, "ARREST": "No", "REPORTYEAR": 2019, "REPORTDATE": "2019-10-28T17:47:00Z", "ADDRESS": "23RD ST/GOSS ST", "CITY": "BOULDER", "DISTRICT": "3C  ", "BEAT": "3N5 " }, "geometry": { "type": "Point", "coordinates": [ -105.264539, 40.016306 ] } },
{ "type": "Feature", "properties": { "OBJECTID": 1912952, "REPORTNUM": 1912952, "NUMBIKESSTOLEN": 3, "STOLENVALUE": 26000.0, "NUMBIKESRECOVERED": 0, "RECOVEREDVALUE": 0.0, "ARREST": "No", "REPORTYEAR": 2019, "REPORTDATE": "2019-10-31T22:00:00Z", "ADDRESS": "7XX THOMAS DR", "CITY": "BOULDER", "DISTRICT": "4   ", "BEAT": "4N2 " }, "geometry": { "type": "Point", "coordinates": [ -105.238668, 40.000712 ] } },
{ "type": "Feature", "properties": { "OBJECTID": 1913322, "REPORTNUM": 1913322, "NUMBIKESSTOLEN": 1, "STOLENVALUE": 4200.0, "NUMBIKESRECOVERED": 0, "RECOVEREDVALUE": 0.0, "ARREST": "No", "REPORTYEAR": 2019, "REPORTDATE": "2019-11-10T01:20:00Z", "ADDRESS": "51XX SANTA CLARA PL", "CITY": "BOULDER", "DISTRICT": "4   ", "BEAT": "4N6 " }, "geometry": { "type": "Point", "coordinates": [ -105.230286, 39.996156 ] } },
{ "type": "Feature", "properties": { "OBJECTID": 1913352, "REPORTNUM": 1913352, "NUMBIKESSTOLEN": 1, "STOLENVALUE": 450.0, "NUMBIKESRECOVERED": 1, "RECOVEREDVALUE": 450.0, "ARREST": "No", "REPORTYEAR": 2019, "REPORTDATE": "2019-11-10T19:13:00Z", "ADDRESS": "21XX 13TH ST", "CITY": "BOULDER", "DISTRICT": "3M  ", "BEAT": "3M  " }, "geometry": { "type": "Point", "coordinates": [ -105.279094, 40.019326 ] } },
{ "type": "Feature", "properties": { "OBJECTID": 1913432, "REPORTNUM": 1913432, "NUMBIKESSTOLEN": 1, "STOLENVALUE": 1000.0, "NUMBIKESRECOVERED": 0, "RECOVEREDVALUE": 0.0, "ARREST": "No", "REPORTYEAR": 2019, "REPORTDATE": "2019-11-12T14:00:35Z", "ADDRESS": "S BROADWAY/TABLE MESA DR", "CITY": "BOULDER", "DISTRICT": "5   ", "BEAT": "5N2 " }, "geometry": { "type": "Point", "coordinates": [ -105.249862, 39.98558 ] } },
{ "type": "Feature", "properties": { "OBJECTID": 1913472, "REPORTNUM": 1913472, "NUMBIKESSTOLEN": 1, "STOLENVALUE": 7500.0, "NUMBIKESRECOVERED": 1, "RECOVEREDVALUE": 7500.0, "ARREST": "Yes", "REPORTYEAR": 2019, "REPORTDATE": "2019-11-13T19:38:00Z", "ADDRESS": "8XX ARAPAHOE AVE", "CITY": "BOULDER", "DISTRICT": "3C  ", "BEAT": "3N4 " }, "geometry": { "type": "Point", "coordinates": [ -105.283551, 40.013162 ] } },
{ "type": "Feature", "properties": { "OBJECTID": 1913574, "REPORTNUM": 1913574, "NUMBIKESSTOLEN": 1, "STOLENVALUE": 350.0, "NUMBIKESRECOVERED": 0, "RECOVEREDVALUE": 0.0, "ARREST": "No", "REPORTYEAR": 2019, "REPORTDATE": "2019-11-15T21:57:00Z", "ADDRESS": "9XX PEARL ST", "CITY": "BOULDER", "DISTRICT": "3M  ", "BEAT": "3M  " }, "geometry": { "type": "Point", "coordinates": [ -105.283789, 40.017067 ] } },
{ "type": "Feature", "properties": { "OBJECTID": 1913577, "REPORTNUM": 1913577, "NUMBIKESSTOLEN": 1, "STOLENVALUE": 6000.0, "NUMBIKESRECOVERED": 0, "RECOVEREDVALUE": 0.0, "ARREST": "No", "REPORTYEAR": 2019, "REPORTDATE": "2019-11-16T04:37:00Z", "ADDRESS": "10XX TANTRA PARK CIR", "CITY": "BOULDER", "DISTRICT": "5   ", "BEAT": "5N5 " }, "geometry": { "type": "Point", "coordinates": [ -105.239414, 39.979714 ] } },
{ "type": "Feature", "properties": { "OBJECTID": 1913632, "REPORTNUM": 1913632, "NUMBIKESSTOLEN": 1, "STOLENVALUE": 1900.0, "NUMBIKESRECOVERED": 1, "RECOVEREDVALUE": 1900.0, "ARREST": "No", "REPORTYEAR": 2019, "REPORTDATE": "2019-11-17T21:00:00Z", "ADDRESS": "31XX BROADWAY", "CITY": "BOULDER", "DISTRICT": "1   ", "BEAT": "1N6 " }, "geometry": { "type": "Point", "coordinates": [ -105.282035, 40.032341 ] } },
{ "type": "Feature", "properties": { "OBJECTID": 1913695, "REPORTNUM": 1913695, "NUMBIKESSTOLEN": 1, "STOLENVALUE": 300.0, "NUMBIKESRECOVERED": 0, "RECOVEREDVALUE": 0.0, "ARREST": "No", "REPORTYEAR": 2019, "REPORTDATE": "2019-11-19T19:14:00Z", "ADDRESS": "44XX AARON PL", "CITY": "BOULDER", "DISTRICT": "4   ", "BEAT": "4N3 " }, "geometry": { "type": "Point", "coordinates": [ -105.238206, 40.012401 ] } },
{ "type": "Feature", "properties": { "OBJECTID": 1913948, "REPORTNUM": 1913948, "NUMBIKESSTOLEN": 1, "STOLENVALUE": 733.54, "NUMBIKESRECOVERED": 0, "RECOVEREDVALUE": 0.0, "ARREST": "No", "REPORTYEAR": 2019, "REPORTDATE": "2019-11-25T22:26:00Z", "ADDRESS": "13XX ROSEWOOD AVE", "CITY": "BOULDER", "DISTRICT": "1   ", "BEAT": "1N2 " }, "geometry": { "type": "Point", "coordinates": [ -105.279937, 40.056819 ] } },
{ "type": "Feature", "properties": { "OBJECTID": 1914109, "REPORTNUM": 1914109, "NUMBIKESSTOLEN": 1, "STOLENVALUE": 4500.0, "NUMBIKESRECOVERED": 1, "RECOVEREDVALUE": 4500.0, "ARREST": "Yes", "REPORTYEAR": 2019, "REPORTDATE": "2019-12-02T11:19:00Z", "ADDRESS": "16XX 28TH ST", "CITY": "BOULDER             ", "DISTRICT": "2   ", "BEAT": "2N5 " }, "geometry": { "type": "Point", "coordinates": [ -105.258312, 40.016757 ] } },
{ "type": "Feature", "properties": { "OBJECTID": 1914127, "REPORTNUM": 1914127, "NUMBIKESSTOLEN": 1, "STOLENVALUE": 1400.0, "NUMBIKESRECOVERED": 0, "RECOVEREDVALUE": 0.0, "ARREST": "No", "REPORTYEAR": 2019, "REPORTDATE": "2019-12-02T20:21:00Z", "ADDRESS": "48XX BASELINE RD", "CITY": "BOULDER", "DISTRICT": "4   ", "BEAT": "4N4 " }, "geometry": { "type": "Point", "coordinates": [ -105.235207, 39.999986 ] } },
{ "type": "Feature", "properties": { "OBJECTID": 1914311, "REPORTNUM": 1914311, "NUMBIKESSTOLEN": 1, "STOLENVALUE": 589.0, "NUMBIKESRECOVERED": 0, "RECOVEREDVALUE": 0.0, "ARREST": "Yes", "REPORTYEAR": 2019, "REPORTDATE": "2019-12-06T23:38:00Z", "ADDRESS": "9TH ST/MARINE | ARAPAHOE ALLEY", "CITY": "BOULDER", "DISTRICT": "3C  ", "BEAT": "3N4 " }, "geometry": { "type": "Point", "coordinates": [ -105.283192, 40.012534 ] } },
{ "type": "Feature", "properties": { "OBJECTID": 1914495, "REPORTNUM": 1914495, "NUMBIKESSTOLEN": 1, "STOLENVALUE": 350.0, "NUMBIKESRECOVERED": 1, "RECOVEREDVALUE": 350.0, "ARREST": "Yes", "REPORTYEAR": 2019, "REPORTDATE": "2019-12-11T15:26:00Z", "ADDRESS": "31XX BROADWAY", "CITY": "BOULDER", "DISTRICT": "1   ", "BEAT": "1N6 " }, "geometry": { "type": "Point", "coordinates": [ -105.282043, 40.031323 ] } },
{ "type": "Feature", "properties": { "OBJECTID": 1914653, "REPORTNUM": 1914653, "NUMBIKESSTOLEN": 1, "STOLENVALUE": 2000.0, "NUMBIKESRECOVERED": 1, "RECOVEREDVALUE": 2000.0, "ARREST": "Yes", "REPORTYEAR": 2019, "REPORTDATE": "2019-12-15T21:49:00Z", "ADDRESS": "8XX PEARL ST", "CITY": "BOULDER", "DISTRICT": "3   ", "BEAT": "3N1 " }, "geometry": { "type": "Point", "coordinates": [ -105.284541, 40.016971 ] } },
{ "type": "Feature", "properties": { "OBJECTID": 1914748, "REPORTNUM": 1914748, "NUMBIKESSTOLEN": 18, "STOLENVALUE": 184550.0, "NUMBIKESRECOVERED": 0, "RECOVEREDVALUE": 0.0, "ARREST": "No", "REPORTYEAR": 2019, "REPORTDATE": "2019-12-18T14:02:00Z", "ADDRESS": "45XX BROADWAY", "CITY": "BOULDER", "DISTRICT": "1   ", "BEAT": "1N2 " }, "geometry": { "type": "Point", "coordinates": [ -105.282093, 40.05764 ] } },
{ "type": "Feature", "properties": { "OBJECTID": 1914758, "REPORTNUM": 1914758, "NUMBIKESSTOLEN": 1, "STOLENVALUE": 600.0, "NUMBIKESRECOVERED": 0, "RECOVEREDVALUE": 0.0, "ARREST": "No", "REPORTYEAR": 2019, "REPORTDATE": "2019-12-18T18:19:00Z", "ADDRESS": "33XX 28TH ST", "CITY": "BOULDER", "DISTRICT": "1   ", "BEAT": "1N6 " }, "geometry": { "type": "Point", "coordinates": [ -105.258476, 40.03511 ] } },
{ "type": "Feature", "properties": { "OBJECTID": 1914826, "REPORTNUM": 1914826, "NUMBIKESSTOLEN": 2, "STOLENVALUE": 500.0, "NUMBIKESRECOVERED": 0, "RECOVEREDVALUE": 0.0, "ARREST": "No", "REPORTYEAR": 2019, "REPORTDATE": "2019-12-20T00:44:35Z", "ADDRESS": "47XX TABLE MESA DR", "CITY": "BOULDER", "DISTRICT": "5   ", "BEAT": "5N2 " }, "geometry": { "type": "Point", "coordinates": [ -105.237704, 39.985786 ] } },
{ "type": "Feature", "properties": { "OBJECTID": 1914928, "REPORTNUM": 1914928, "NUMBIKESSTOLEN": 2, "STOLENVALUE": 2500.0, "NUMBIKESRECOVERED": 0, "RECOVEREDVALUE": 0.0, "ARREST": "No", "REPORTYEAR": 2019, "REPORTDATE": "2019-12-23T15:19:00Z", "ADDRESS": "13XX 28TH ST", "CITY": "BOULDER", "DISTRICT": "4   ", "BEAT": "4N1 " }, "geometry": { "type": "Point", "coordinates": [ -105.258626, 40.010961 ] } },
{ "type": "Feature", "properties": { "OBJECTID": 1914936, "REPORTNUM": 1914936, "NUMBIKESSTOLEN": 1, "STOLENVALUE": 3000.0, "NUMBIKESRECOVERED": 0, "RECOVEREDVALUE": 0.0, "ARREST": "No", "REPORTYEAR": 2019, "REPORTDATE": "2019-12-23T19:02:00Z", "ADDRESS": "29XX E AURORA AVE", "CITY": "BOULDER", "DISTRICT": "4   ", "BEAT": "4N1 " }, "geometry": { "type": "Point", "coordinates": [ -105.255568, 40.003758 ] } },
{ "type": "Feature", "properties": { "OBJECTID": 1914963, "REPORTNUM": 1914963, "NUMBIKESSTOLEN": 18, "STOLENVALUE": 147760.0, "NUMBIKESRECOVERED": 0, "RECOVEREDVALUE": 0.0, "ARREST": "No", "REPORTYEAR": 2019, "REPORTDATE": "2019-12-24T17:47:00Z", "ADDRESS": "56XX AIRPORT BLVD", "CITY": "BOULDER", "DISTRICT": "2   ", "BEAT": "2N4 " }, "geometry": { "type": "Point", "coordinates": [ -105.224434, 40.03685 ] } },
{ "type": "Feature", "properties": { "OBJECTID": 1915165, "REPORTNUM": 1915165, "NUMBIKESSTOLEN": 1, "STOLENVALUE": 1800.0, "NUMBIKESRECOVERED": 0, "RECOVEREDVALUE": 0.0, "ARREST": "No", "REPORTYEAR": 2019, "REPORTDATE": "2020-01-01T03:00:00Z", "ADDRESS": "14XX BROADWAY", "CITY": "BOULDER", "DISTRICT": "3C  ", "BEAT": "3H3 " }, "geometry": { "type": "Point", "coordinates": [ -105.277322, 40.011147 ] } },
{ "type": "Feature", "properties": { "OBJECTID": 1970019, "REPORTNUM": 1970019, "NUMBIKESSTOLEN": 1, "STOLENVALUE": 2000.0, "NUMBIKESRECOVERED": 0, "RECOVEREDVALUE": 0.0, "ARREST": "No", "REPORTYEAR": 2019, "REPORTDATE": "2019-01-02T21:32:00Z", "ADDRESS": "5XX MOHAWK DR", "CITY": "BOULDER", "DISTRICT": "4   ", "BEAT": "4N4 " }, "geometry": { "type": "Point", "coordinates": [ -105.236397, 39.996958 ] } },
{ "type": "Feature", "properties": { "OBJECTID": 1970024, "REPORTNUM": 1970024, "NUMBIKESSTOLEN": 1, "STOLENVALUE": 1200.0, "NUMBIKESRECOVERED": 0, "RECOVEREDVALUE": 0.0, "ARREST": "No", "REPORTYEAR": 2019, "REPORTDATE": "2019-01-03T16:10:00Z", "ADDRESS": "26XX 9TH ST", "CITY": "BOULDER", "DISTRICT": "1   ", "BEAT": "1N5 " }, "geometry": { "type": "Point", "coordinates": [ -105.285697, 40.025037 ] } },
{ "type": "Feature", "properties": { "OBJECTID": 1970036, "REPORTNUM": 1970036, "NUMBIKESSTOLEN": 1, "STOLENVALUE": 4000.0, "NUMBIKESRECOVERED": 0, "RECOVEREDVALUE": 0.0, "ARREST": "No", "REPORTYEAR": 2019, "REPORTDATE": "2019-01-07T03:28:00Z", "ADDRESS": "14XX PEARL ST", "CITY": "BOULDER", "DISTRICT": "3M  ", "BEAT": "3M  " }, "geometry": { "type": "Point", "coordinates": [ -105.276755, 40.018596 ] } },
{ "type": "Feature", "properties": { "OBJECTID": 1970038, "REPORTNUM": 1970038, "NUMBIKESSTOLEN": 1, "STOLENVALUE": 700.0, "NUMBIKESRECOVERED": 0, "RECOVEREDVALUE": 0.0, "ARREST": "No", "REPORTYEAR": 2019, "REPORTDATE": "2019-01-06T23:57:00Z", "ADDRESS": "24XX 10TH ST", "CITY": "BOULDER", "DISTRICT": "1   ", "BEAT": "1N5 " }, "geometry": { "type": "Point", "coordinates": [ -105.283907, 40.022271 ] } },
{ "type": "Feature", "properties": { "OBJECTID": 1970045, "REPORTNUM": 1970045, "NUMBIKESSTOLEN": 1, "STOLENVALUE": 150.0, "NUMBIKESRECOVERED": 0, "RECOVEREDVALUE": 0.0, "ARREST": "No", "REPORTYEAR": 2019, "REPORTDATE": "2019-01-05T18:49:00Z", "ADDRESS": "37XX MOFFIT CT", "CITY": "BOULDER", "DISTRICT": "1   ", "BEAT": "1N3 " }, "geometry": { "type": "Point", "coordinates": [ -105.285003, 40.043359 ] } },
{ "type": "Feature", "properties": { "OBJECTID": 1970049, "REPORTNUM": 1970049, "NUMBIKESSTOLEN": 1, "STOLENVALUE": 2000.0, "NUMBIKESRECOVERED": 0, "RECOVEREDVALUE": 0.0, "ARREST": "No", "REPORTYEAR": 2019, "REPORTDATE": "2019-01-05T05:32:00Z", "ADDRESS": "12XX ALPINE AVE", "CITY": "BOULDER", "DISTRICT": "1   ", "BEAT": "1N6 " }, "geometry": { "type": "Point", "coordinates": [ -105.280806, 40.025544 ] } },
{ "type": "Feature", "properties": { "OBJECTID": 1970056, "REPORTNUM": 1970056, "NUMBIKESSTOLEN": 1, "STOLENVALUE": 570.0, "NUMBIKESRECOVERED": 0, "RECOVEREDVALUE": 0.0, "ARREST": "No", "REPORTYEAR": 2019, "REPORTDATE": "2019-01-07T18:35:00Z", "ADDRESS": "49XX MOORHEAD AVE", "CITY": "BOULDER", "DISTRICT": "5   ", "BEAT": "5N2 " }, "geometry": { "type": "Point", "coordinates": [ -105.237638, 39.986109 ] } },
{ "type": "Feature", "properties": { "OBJECTID": 1970059, "REPORTNUM": 1970059, "NUMBIKESSTOLEN": 1, "STOLENVALUE": 1200.0, "NUMBIKESRECOVERED": 1, "RECOVEREDVALUE": 1200.0, "ARREST": "No", "REPORTYEAR": 2019, "REPORTDATE": "2019-01-07T23:52:00Z", "ADDRESS": "28XX SHADOW CREEK DR", "CITY": "BOULDER", "DISTRICT": "4   ", "BEAT": "4N1 " }, "geometry": { "type": "Point", "coordinates": [ -105.255556, 40.010385 ] } },
{ "type": "Feature", "properties": { "OBJECTID": 1970066, "REPORTNUM": 1970066, "NUMBIKESSTOLEN": 1, "STOLENVALUE": 3000.0, "NUMBIKESRECOVERED": 0, "RECOVEREDVALUE": 0.0, "ARREST": "No", "REPORTYEAR": 2019, "REPORTDATE": "2019-01-09T06:10:00Z", "ADDRESS": "28XX MAPLETON AVE", "CITY": "BOULDER", "DISTRICT": "2   ", "BEAT": "2N5 " }, "geometry": { "type": "Point", "coordinates": [ -105.257694, 40.025552 ] } },
{ "type": "Feature", "properties": { "OBJECTID": 1970069, "REPORTNUM": 1970069, "NUMBIKESSTOLEN": 2, "STOLENVALUE": 1300.0, "NUMBIKESRECOVERED": 0, "RECOVEREDVALUE": 0.0, "ARREST": "No", "REPORTYEAR": 2019, "REPORTDATE": "2019-01-08T23:34:00Z", "ADDRESS": "6XX UNIVERSITY AVE", "CITY": "BOULDER", "DISTRICT": "3C  ", "BEAT": "3N4 " }, "geometry": { "type": "Point", "coordinates": [ -105.286707, 40.010495 ] } },
{ "type": "Feature", "properties": { "OBJECTID": 1970071, "REPORTNUM": 1970071, "NUMBIKESSTOLEN": 1, "STOLENVALUE": 700.0, "NUMBIKESRECOVERED": 0, "RECOVEREDVALUE": 0.0, "ARREST": "No", "REPORTYEAR": 2019, "REPORTDATE": "2019-01-09T21:26:00Z", "ADDRESS": "27XX MOORHEAD AVE", "CITY": "BOULDER", "DISTRICT": "5   ", "BEAT": "5N2 " }, "geometry": { "type": "Point", "coordinates": [ -105.26004, 39.999071 ] } },
{ "type": "Feature", "properties": { "OBJECTID": 1970075, "REPORTNUM": 1970075, "NUMBIKESSTOLEN": 1, "STOLENVALUE": 600.0, "NUMBIKESRECOVERED": 0, "RECOVEREDVALUE": 0.0, "ARREST": "No", "REPORTYEAR": 2019, "REPORTDATE": "2019-01-10T17:42:00Z", "ADDRESS": "29XX E AURORA AVE", "CITY": "BOULDER", "DISTRICT": "4   ", "BEAT": "4N1 " }, "geometry": { "type": "Point", "coordinates": [ -105.253457, 40.003757 ] } },
{ "type": "Feature", "properties": { "OBJECTID": 1970083, "REPORTNUM": 1970083, "NUMBIKESSTOLEN": 1, "STOLENVALUE": 5000.0, "NUMBIKESRECOVERED": 0, "RECOVEREDVALUE": 0.0, "ARREST": "No", "REPORTYEAR": 2019, "REPORTDATE": "2019-01-11T00:34:00Z", "ADDRESS": "32XX ONEAL CIR", "CITY": "BOULDER", "DISTRICT": "2   ", "BEAT": "2N3 " }, "geometry": { "type": "Point", "coordinates": [ -105.25074, 40.0333 ] } },
{ "type": "Feature", "properties": { "OBJECTID": 1970086, "REPORTNUM": 1970086, "NUMBIKESSTOLEN": 1, "STOLENVALUE": 7000.0, "NUMBIKESRECOVERED": 0, "RECOVEREDVALUE": 0.0, "ARREST": "No", "REPORTYEAR": 2019, "REPORTDATE": "2019-01-11T06:43:00Z", "ADDRESS": "BROADWAY/BASELINE RD", "CITY": "BOULDER", "DISTRICT": "5   ", "BEAT": "5N1 " }, "geometry": { "type": "Point", "coordinates": [ -105.26379, 40.000067 ] } },
{ "type": "Feature", "properties": { "OBJECTID": 1970091, "REPORTNUM": 1970091, "NUMBIKESSTOLEN": 1, "STOLENVALUE": 500.0, "NUMBIKESRECOVERED": 0, "RECOVEREDVALUE": 0.0, "ARREST": "No", "REPORTYEAR": 2019, "REPORTDATE": "2019-01-12T01:56:00Z", "ADDRESS": "18XX 14TH ST", "CITY": "BOULDER", "DISTRICT": "3M  ", "BEAT": "3M  " }, "geometry": { "type": "Point", "coordinates": [ -105.276663, 40.016463 ] } },
{ "type": "Feature", "properties": { "OBJECTID": 1970097, "REPORTNUM": 1970097, "NUMBIKESSTOLEN": 1, "STOLENVALUE": 200.0, "NUMBIKESRECOVERED": 0, "RECOVEREDVALUE": 0.0, "ARREST": "No", "REPORTYEAR": 2019, "REPORTDATE": "2019-01-12T17:23:00Z", "ADDRESS": "BLUFF ST/29TH ST", "CITY": "BOULDER", "DISTRICT": "2   ", "BEAT": "2N5 " }, "geometry": { "type": "Point", "coordinates": [ -105.256111, 40.027356 ] } },
{ "type": "Feature", "properties": { "OBJECTID": 1970106, "REPORTNUM": 1970106, "NUMBIKESSTOLEN": 1, "STOLENVALUE": 1900.0, "NUMBIKESRECOVERED": 0, "RECOVEREDVALUE": 0.0, "ARREST": "No", "REPORTYEAR": 2019, "REPORTDATE": "2019-01-13T17:48:00Z", "ADDRESS": "8XX 28TH FRONTAGE RD", "CITY": "BOULDER", "DISTRICT": "4   ", "BEAT": "4N1 " }, "geometry": { "type": "Point", "coordinates": [ -105.257027, 40.001136 ] } },
{ "type": "Feature", "properties": { "OBJECTID": 1970109, "REPORTNUM": 1970109, "NUMBIKESSTOLEN": 1, "STOLENVALUE": 3500.0, "NUMBIKESRECOVERED": 0, "RECOVEREDVALUE": 0.0, "ARREST": "No", "REPORTYEAR": 2019, "REPORTDATE": "2019-01-13T18:54:00Z", "ADDRESS": "20XX BROADWAY", "CITY": "BOULDER", "DISTRICT": "3M  ", "BEAT": "3M  " }, "geometry": { "type": "Point", "coordinates": [ -105.280197, 40.018617 ] } },
{ "type": "Feature", "properties": { "OBJECTID": 1970121, "REPORTNUM": 1970121, "NUMBIKESSTOLEN": 1, "STOLENVALUE": 1363.0, "NUMBIKESRECOVERED": 0, "RECOVEREDVALUE": 0.0, "ARREST": "No", "REPORTYEAR": 2019, "REPORTDATE": "2019-01-14T18:30:00Z", "ADDRESS": "28XX E AURORA AVE", "CITY": "BOULDER", "DISTRICT": "4   ", "BEAT": "4N1 " }, "geometry": { "type": "Point", "coordinates": [ -105.257018, 40.003705 ] } },
{ "type": "Feature", "properties": { "OBJECTID": 1970123, "REPORTNUM": 1970123, "NUMBIKESSTOLEN": 1, "STOLENVALUE": 200.0, "NUMBIKESRECOVERED": 0, "RECOVEREDVALUE": 0.0, "ARREST": "No", "REPORTYEAR": 2019, "REPORTDATE": "2019-01-14T19:47:00Z", "ADDRESS": "14XX WALNUT ST", "CITY": "BOULDER", "DISTRICT": "3M  ", "BEAT": "3M  " }, "geometry": { "type": "Point", "coordinates": [ -105.277016, 40.017397 ] } },
{ "type": "Feature", "properties": { "OBJECTID": 1970130, "REPORTNUM": 1970130, "NUMBIKESSTOLEN": 1, "STOLENVALUE": 400.0, "NUMBIKESRECOVERED": 0, "RECOVEREDVALUE": 0.0, "ARREST": "No", "REPORTYEAR": 2019, "REPORTDATE": "2019-01-15T01:02:00Z", "ADDRESS": "29XX E AURORA AVE", "CITY": "BOULDER", "DISTRICT": "4   ", "BEAT": "4N1 " }, "geometry": { "type": "Point", "coordinates": [ -105.253457, 40.003757 ] } },
{ "type": "Feature", "properties": { "OBJECTID": 1970131, "REPORTNUM": 1970131, "NUMBIKESSTOLEN": 1, "STOLENVALUE": 1000.0, "NUMBIKESRECOVERED": 0, "RECOVEREDVALUE": 0.0, "ARREST": "No", "REPORTYEAR": 2019, "REPORTDATE": "2019-01-15T01:22:00Z", "ADDRESS": "9XX 28TH ST", "CITY": "BOULDER", "DISTRICT": "4   ", "BEAT": "4N1 " }, "geometry": { "type": "Point", "coordinates": [ -105.258552, 40.006388 ] } },
{ "type": "Feature", "properties": { "OBJECTID": 1970133, "REPORTNUM": 1970133, "NUMBIKESSTOLEN": 1, "STOLENVALUE": 2800.0, "NUMBIKESRECOVERED": 0, "RECOVEREDVALUE": 0.0, "ARREST": "No", "REPORTYEAR": 2019, "REPORTDATE": "2019-01-15T02:35:00Z", "ADDRESS": "9XX WALNUT ST", "CITY": "BOULDER", "DISTRICT": "3M  ", "BEAT": "3M  " }, "geometry": { "type": "Point", "coordinates": [ -105.283464, 40.016121 ] } },
{ "type": "Feature", "properties": { "OBJECTID": 1970152, "REPORTNUM": 1970152, "NUMBIKESSTOLEN": 1, "STOLENVALUE": 1000.0, "NUMBIKESRECOVERED": 0, "RECOVEREDVALUE": 0.0, "ARREST": "No", "REPORTYEAR": 2019, "REPORTDATE": "2019-01-17T20:48:00Z", "ADDRESS": "16XX 9TH ST", "CITY": "BOULDER", "DISTRICT": "3C  ", "BEAT": "3N4 " }, "geometry": { "type": "Point", "coordinates": [ -105.283216, 40.012601 ] } },
{ "type": "Feature", "properties": { "OBJECTID": 1970172, "REPORTNUM": 1970172, "NUMBIKESSTOLEN": 2, "STOLENVALUE": 1000.0, "NUMBIKESRECOVERED": 0, "RECOVEREDVALUE": 0.0, "ARREST": "No", "REPORTYEAR": 2019, "REPORTDATE": "2019-01-19T20:19:00Z", "ADDRESS": "10XX CHINLE AVE", "CITY": "BOULDER", "DISTRICT": "1   ", "BEAT": "1N1 " }, "geometry": { "type": "Point", "coordinates": [ -105.284455, 40.065735 ] } },
{ "type": "Feature", "properties": { "OBJECTID": 1970184, "REPORTNUM": 1970184, "NUMBIKESSTOLEN": 1, "STOLENVALUE": 400.0, "NUMBIKESRECOVERED": 0, "RECOVEREDVALUE": 0.0, "ARREST": "No", "REPORTYEAR": 2019, "REPORTDATE": "2019-01-20T23:34:00Z", "ADDRESS": "28XX MAPLETON AVE", "CITY": "BOULDER", "DISTRICT": "2   ", "BEAT": "2N5 " }, "geometry": { "type": "Point", "coordinates": [ -105.257193, 40.025501 ] } },
{ "type": "Feature", "properties": { "OBJECTID": 1970185, "REPORTNUM": 1970185, "NUMBIKESSTOLEN": 1, "STOLENVALUE": 6000.0, "NUMBIKESRECOVERED": 0, "RECOVEREDVALUE": 0.0, "ARREST": "No", "REPORTYEAR": 2019, "REPORTDATE": "2019-01-21T03:25:00Z", "ADDRESS": "11XX PORTLAND PL", "CITY": "BOULDER", "DISTRICT": "1   ", "BEAT": "1N5 " }, "geometry": { "type": "Point", "coordinates": [ -105.282545, 40.02325 ] } },
{ "type": "Feature", "properties": { "OBJECTID": 1970195, "REPORTNUM": 1970195, "NUMBIKESSTOLEN": 1, "STOLENVALUE": 800.0, "NUMBIKESRECOVERED": 0, "RECOVEREDVALUE": 0.0, "ARREST": "No", "REPORTYEAR": 2019, "REPORTDATE": "2019-01-22T15:12:00Z", "ADDRESS": "7XX 29TH ST", "CITY": "BOULDER", "DISTRICT": "4   ", "BEAT": "4N1 " }, "geometry": { "type": "Point", "coordinates": [ -105.255906, 40.000868 ] } },
{ "type": "Feature", "properties": { "OBJECTID": 1970211, "REPORTNUM": 1970211, "NUMBIKESSTOLEN": 1, "STOLENVALUE": 400.0, "NUMBIKESRECOVERED": 0, "RECOVEREDVALUE": 0.0, "ARREST": "No", "REPORTYEAR": 2019, "REPORTDATE": "2019-01-23T17:01:00Z", "ADDRESS": "29XX E AURORA AVE", "CITY": "BOULDER", "DISTRICT": "4   ", "BEAT": "4N1 " }, "geometry": { "type": "Point", "coordinates": [ -105.255568, 40.003758 ] } },
{ "type": "Feature", "properties": { "OBJECTID": 1970213, "REPORTNUM": 1970213, "NUMBIKESSTOLEN": 1, "STOLENVALUE": 600.0, "NUMBIKESRECOVERED": 0, "RECOVEREDVALUE": 0.0, "ARREST": "No", "REPORTYEAR": 2019, "REPORTDATE": "2019-01-23T20:26:00Z", "ADDRESS": "19XX BASELINE RD", "CITY": "BOULDER", "DISTRICT": "3C  ", "BEAT": "3H12" }, "geometry": { "type": "Point", "coordinates": [ -105.268774, 40.000108 ] } },
{ "type": "Feature", "properties": { "OBJECTID": 1970233, "REPORTNUM": 1970233, "NUMBIKESSTOLEN": 1, "STOLENVALUE": 385.0, "NUMBIKESRECOVERED": 0, "RECOVEREDVALUE": 0.0, "ARREST": "No", "REPORTYEAR": 2019, "REPORTDATE": "2019-01-26T20:38:00Z", "ADDRESS": "33XX CHISHOLM TRL", "CITY": "BOULDER", "DISTRICT": "2   ", "BEAT": "2N3 " }, "geometry": { "type": "Point", "coordinates": [ -105.252008, 40.035913 ] } },
{ "type": "Feature", "properties": { "OBJECTID": 1970240, "REPORTNUM": 1970240, "NUMBIKESSTOLEN": 1, "STOLENVALUE": 1800.0, "NUMBIKESRECOVERED": 0, "RECOVEREDVALUE": 0.0, "ARREST": "No", "REPORTYEAR": 2019, "REPORTDATE": "2019-01-28T01:59:00Z", "ADDRESS": "39XX TABLE MESA DR", "CITY": "BOULDER", "DISTRICT": "5   ", "BEAT": "5N5 " }, "geometry": { "type": "Point", "coordinates": [ -105.248158, 39.985786 ] } },
{ "type": "Feature", "properties": { "OBJECTID": 1970243, "REPORTNUM": 1970243, "NUMBIKESSTOLEN": 1, "STOLENVALUE": 600.0, "NUMBIKESRECOVERED": 0, "RECOVEREDVALUE": 0.0, "ARREST": "No", "REPORTYEAR": 2019, "REPORTDATE": "2019-01-28T15:43:00Z", "ADDRESS": "23XX SPRUCE ST", "CITY": "BOULDER", "DISTRICT": "3   ", "BEAT": "3N2 " }, "geometry": { "type": "Point", "coordinates": [ -105.265564, 40.021961 ] } },
{ "type": "Feature", "properties": { "OBJECTID": 1970263, "REPORTNUM": 1970263, "NUMBIKESSTOLEN": 1, "STOLENVALUE": 700.0, "NUMBIKESRECOVERED": 0, "RECOVEREDVALUE": 0.0, "ARREST": "No", "REPORTYEAR": 2019, "REPORTDATE": "2019-01-29T16:34:00Z", "ADDRESS": "51XX TABLE MESA DR", "CITY": "BOULDER", "DISTRICT": "4   ", "BEAT": "4N4 " }, "geometry": { "type": "Point", "coordinates": [ -105.232305, 39.98689 ] } },
{ "type": "Feature", "properties": { "OBJECTID": 1970270, "REPORTNUM": 1970270, "NUMBIKESSTOLEN": 1, "STOLENVALUE": 400.0, "NUMBIKESRECOVERED": 0, "RECOVEREDVALUE": 0.0, "ARREST": "No", "REPORTYEAR": 2019, "REPORTDATE": "2019-01-30T04:12:00Z", "ADDRESS": "16XX ARAPAHOE AVE", "CITY": "BOULDER", "DISTRICT": "3   ", "BEAT": "3N6 " }, "geometry": { "type": "Point", "coordinates": [ -105.273579, 40.014556 ] } },
{ "type": "Feature", "properties": { "OBJECTID": 1970275, "REPORTNUM": 1970275, "NUMBIKESSTOLEN": 1, "STOLENVALUE": 1500.0, "NUMBIKESRECOVERED": 0, "RECOVEREDVALUE": 0.0, "ARREST": "No", "REPORTYEAR": 2019, "REPORTDATE": "2019-01-30T17:00:00Z", "ADDRESS": "28XX KALMIA AVE", "CITY": "BOULDER", "DISTRICT": "2   ", "BEAT": "2N2 " }, "geometry": { "type": "Point", "coordinates": [ -105.258481, 40.040078 ] } },
{ "type": "Feature", "properties": { "OBJECTID": 1970302, "REPORTNUM": 1970302, "NUMBIKESSTOLEN": 1, "STOLENVALUE": 2500.0, "NUMBIKESRECOVERED": 0, "RECOVEREDVALUE": 0.0, "ARREST": "No", "REPORTYEAR": 2019, "REPORTDATE": "2019-02-02T16:35:00Z", "ADDRESS": "9XX W MOORHEAD CIR", "CITY": "BOULDER", "DISTRICT": "5   ", "BEAT": "5N5 " }, "geometry": { "type": "Point", "coordinates": [ -105.238689, 39.980017 ] } },
{ "type": "Feature", "properties": { "OBJECTID": 1970303, "REPORTNUM": 1970303, "NUMBIKESSTOLEN": 1, "STOLENVALUE": 900.0, "NUMBIKESRECOVERED": 0, "RECOVEREDVALUE": 0.0, "ARREST": "No", "REPORTYEAR": 2019, "REPORTDATE": "2019-02-02T23:01:00Z", "ADDRESS": "16XX 17TH ST", "CITY": "BOULDER", "DISTRICT": "3C  ", "BEAT": "3N5 " }, "geometry": { "type": "Point", "coordinates": [ -105.272524, 40.015548 ] } },
{ "type": "Feature", "properties": { "OBJECTID": 1970312, "REPORTNUM": 1970312, "NUMBIKESSTOLEN": 1, "STOLENVALUE": 1200.0, "NUMBIKESRECOVERED": 0, "RECOVEREDVALUE": 0.0, "ARREST": "No", "REPORTYEAR": 2019, "REPORTDATE": "2019-02-04T02:47:00Z", "ADDRESS": "9XX WALNUT ST", "CITY": "BOULDER", "DISTRICT": "3M  ", "BEAT": "3M  " }, "geometry": { "type": "Point", "coordinates": [ -105.282968, 40.016221 ] } },
{ "type": "Feature", "properties": { "OBJECTID": 1970313, "REPORTNUM": 1970313, "NUMBIKESSTOLEN": 1, "STOLENVALUE": 10000.0, "NUMBIKESRECOVERED": 0, "RECOVEREDVALUE": 0.0, "ARREST": "No", "REPORTYEAR": 2019, "REPORTDATE": "2019-02-04T02:57:00Z", "ADDRESS": "19XX 30TH ST", "CITY": "BOULDER", "DISTRICT": "2   ", "BEAT": "2N5 " }, "geometry": { "type": "Point", "coordinates": [ -105.253606, 40.020691 ] } },
{ "type": "Feature", "properties": { "OBJECTID": 1970326, "REPORTNUM": 1970326, "NUMBIKESSTOLEN": 1, "STOLENVALUE": 1500.0, "NUMBIKESRECOVERED": 0, "RECOVEREDVALUE": 0.0, "ARREST": "No", "REPORTYEAR": 2019, "REPORTDATE": "2019-02-05T19:41:00Z", "ADDRESS": "29XX GLENWOOD DR", "CITY": "BOULDER", "DISTRICT": "2   ", "BEAT": "2N2 " }, "geometry": { "type": "Point", "coordinates": [ -105.253829, 40.032855 ] } },
{ "type": "Feature", "properties": { "OBJECTID": 1970327, "REPORTNUM": 1970327, "NUMBIKESSTOLEN": 1, "STOLENVALUE": 1000.0, "NUMBIKESRECOVERED": 0, "RECOVEREDVALUE": 0.0, "ARREST": "No", "REPORTYEAR": 2019, "REPORTDATE": "2019-02-05T19:50:00Z", "ADDRESS": "31XX CORONA TRL", "CITY": "BOULDER", "DISTRICT": "2   ", "BEAT": "2N3 " }, "geometry": { "type": "Point", "coordinates": [ -105.252834, 40.034964 ] } },
{ "type": "Feature", "properties": { "OBJECTID": 1970329, "REPORTNUM": 1970329, "NUMBIKESSTOLEN": 1, "STOLENVALUE": 400.0, "NUMBIKESRECOVERED": 0, "RECOVEREDVALUE": 0.0, "ARREST": "No", "REPORTYEAR": 2019, "REPORTDATE": "2019-02-05T23:18:00Z", "ADDRESS": "13XX HIGH ST", "CITY": "BOULDER", "DISTRICT": "1   ", "BEAT": "1N6 " }, "geometry": { "type": "Point", "coordinates": [ -105.280119, 40.022482 ] } },
{ "type": "Feature", "properties": { "OBJECTID": 1970346, "REPORTNUM": 1970346, "NUMBIKESSTOLEN": 1, "STOLENVALUE": 2500.0, "NUMBIKESRECOVERED": 0, "RECOVEREDVALUE": 0.0, "ARREST": "No", "REPORTYEAR": 2019, "REPORTDATE": "2019-02-07T02:26:00Z", "ADDRESS": "6XX MANHATTAN DR", "CITY": "BOULDER", "DISTRICT": "4   ", "BEAT": "4N6 " }, "geometry": { "type": "Point", "coordinates": [ -105.229467, 39.999372 ] } },
{ "type": "Feature", "properties": { "OBJECTID": 1970350, "REPORTNUM": 1970350, "NUMBIKESSTOLEN": 1, "STOLENVALUE": 680.0, "NUMBIKESRECOVERED": 0, "RECOVEREDVALUE": 0.0, "ARREST": "No", "REPORTYEAR": 2019, "REPORTDATE": "2019-02-07T20:54:00Z", "ADDRESS": "17XX 29TH ST", "CITY": "BOULDER", "DISTRICT": "2   ", "BEAT": "2N5 " }, "geometry": { "type": "Point", "coordinates": [ -105.256158, 40.016426 ] } },
{ "type": "Feature", "properties": { "OBJECTID": 1970355, "REPORTNUM": 1970355, "NUMBIKESSTOLEN": 2, "STOLENVALUE": 1600.0, "NUMBIKESRECOVERED": 0, "RECOVEREDVALUE": 0.0, "ARREST": "No", "REPORTYEAR": 2019, "REPORTDATE": "2019-02-08T17:54:00Z", "ADDRESS": "48XX BROADWAY", "CITY": "BOULDER", "DISTRICT": "1   ", "BEAT": "1N1 " }, "geometry": { "type": "Point", "coordinates": [ -105.282162, 40.062913 ] } },
{ "type": "Feature", "properties": { "OBJECTID": 1970385, "REPORTNUM": 1970385, "NUMBIKESSTOLEN": 1, "STOLENVALUE": 500.0, "NUMBIKESRECOVERED": 0, "RECOVEREDVALUE": 0.0, "ARREST": "No", "REPORTYEAR": 2019, "REPORTDATE": "2019-02-11T23:17:00Z", "ADDRESS": "31XX EASTWOOD CT", "CITY": "BOULDER", "DISTRICT": "1   ", "BEAT": "1N6 " }, "geometry": { "type": "Point", "coordinates": [ -105.260759, 40.032404 ] } },
{ "type": "Feature", "properties": { "OBJECTID": 1970386, "REPORTNUM": 1970386, "NUMBIKESSTOLEN": 1, "STOLENVALUE": 200.0, "NUMBIKESRECOVERED": 0, "RECOVEREDVALUE": 0.0, "ARREST": "No", "REPORTYEAR": 2019, "REPORTDATE": "2019-02-12T06:06:00Z", "ADDRESS": "8XX 20TH ST", "CITY": "BOULDER", "DISTRICT": "3C  ", "BEAT": "3H12" }, "geometry": { "type": "Point", "coordinates": [ -105.267748, 40.002335 ] } },
{ "type": "Feature", "properties": { "OBJECTID": 1970395, "REPORTNUM": 1970395, "NUMBIKESSTOLEN": 1, "STOLENVALUE": 385.0, "NUMBIKESRECOVERED": 0, "RECOVEREDVALUE": 0.0, "ARREST": "No", "REPORTYEAR": 2019, "REPORTDATE": "2019-02-13T00:10:00Z", "ADDRESS": "9XX MARINE ST", "CITY": "BOULDER", "DISTRICT": "3C  ", "BEAT": "3H1 " }, "geometry": { "type": "Point", "coordinates": [ -105.281602, 40.01224 ] } },
{ "type": "Feature", "properties": { "OBJECTID": 1970411, "REPORTNUM": 1970411, "NUMBIKESSTOLEN": 1, "STOLENVALUE": 800.0, "NUMBIKESRECOVERED": 0, "RECOVEREDVALUE": 0.0, "ARREST": "No", "REPORTYEAR": 2019, "REPORTDATE": "2019-02-14T20:41:00Z", "ADDRESS": "8XX BROADWAY", "CITY": "BOULDER", "DISTRICT": "3   ", "BEAT": "CU  " }, "geometry": { "type": "Point", "coordinates": [ -105.267251, 40.003281 ] } },
{ "type": "Feature", "properties": { "OBJECTID": 1970428, "REPORTNUM": 1970428, "NUMBIKESSTOLEN": 1, "STOLENVALUE": 1700.0, "NUMBIKESRECOVERED": 0, "RECOVEREDVALUE": 0.0, "ARREST": "No", "REPORTYEAR": 2019, "REPORTDATE": "2019-02-16T20:44:00Z", "ADDRESS": "15XX CHAMBERS DR", "CITY": "BOULDER", "DISTRICT": "5   ", "BEAT": "5N6 " }, "geometry": { "type": "Point", "coordinates": [ -105.239845, 39.973701 ] } },
{ "type": "Feature", "properties": { "OBJECTID": 1970431, "REPORTNUM": 1970431, "NUMBIKESSTOLEN": 1, "STOLENVALUE": 1200.0, "NUMBIKESRECOVERED": 0, "RECOVEREDVALUE": 0.0, "ARREST": "No", "REPORTYEAR": 2019, "REPORTDATE": "2019-02-17T02:41:00Z", "ADDRESS": "16XX WALNUT ST", "CITY": "BOULDER", "DISTRICT": "3   ", "BEAT": "3N1 " }, "geometry": { "type": "Point", "coordinates": [ -105.274181, 40.01797 ] } },
{ "type": "Feature", "properties": { "OBJECTID": 1970437, "REPORTNUM": 1970437, "NUMBIKESSTOLEN": 1, "STOLENVALUE": 2900.0, "NUMBIKESRECOVERED": 0, "RECOVEREDVALUE": 0.0, "ARREST": "No", "REPORTYEAR": 2019, "REPORTDATE": "2019-02-18T02:17:00Z", "ADDRESS": "9XX ARAPAHOE AVE", "CITY": "BOULDER", "DISTRICT": "3C  ", "BEAT": "3H1 " }, "geometry": { "type": "Point", "coordinates": [ -105.281795, 40.013452 ] } },
{ "type": "Feature", "properties": { "OBJECTID": 1970455, "REPORTNUM": 1970455, "NUMBIKESSTOLEN": 1, "STOLENVALUE": 550.0, "NUMBIKESRECOVERED": 0, "RECOVEREDVALUE": 0.0, "ARREST": "No", "REPORTYEAR": 2019, "REPORTDATE": "2019-02-20T19:26:00Z", "ADDRESS": "10XX KENT ST", "CITY": "BOULDER", "DISTRICT": "4   ", "BEAT": "4N1 " }, "geometry": { "type": "Point", "coordinates": [ -105.254343, 40.005488 ] } },
{ "type": "Feature", "properties": { "OBJECTID": 1970456, "REPORTNUM": 1970456, "NUMBIKESSTOLEN": 1, "STOLENVALUE": 720.0, "NUMBIKESRECOVERED": 0, "RECOVEREDVALUE": 0.0, "ARREST": "No", "REPORTYEAR": 2019, "REPORTDATE": "2019-02-20T19:57:00Z", "ADDRESS": "27XX MOORHEAD AVE", "CITY": "BOULDER", "DISTRICT": "5   ", "BEAT": "5N2 " }, "geometry": { "type": "Point", "coordinates": [ -105.258324, 39.999027 ] } },
{ "type": "Feature", "properties": { "OBJECTID": 1970459, "REPORTNUM": 1970459, "NUMBIKESSTOLEN": 1, "STOLENVALUE": 800.0, "NUMBIKESRECOVERED": 0, "RECOVEREDVALUE": 0.0, "ARREST": "No", "REPORTYEAR": 2019, "REPORTDATE": "2019-02-20T23:15:00Z", "ADDRESS": "9XX 14TH ST", "CITY": "BOULDER", "DISTRICT": "3C  ", "BEAT": "3H8 " }, "geometry": { "type": "Point", "coordinates": [ -105.274927, 40.005368 ] } },
{ "type": "Feature", "properties": { "OBJECTID": 1970462, "REPORTNUM": 1970462, "NUMBIKESSTOLEN": 1, "STOLENVALUE": 2000.0, "NUMBIKESRECOVERED": 0, "RECOVEREDVALUE": 0.0, "ARREST": "No", "REPORTYEAR": 2019, "REPORTDATE": "2019-02-21T02:19:00Z", "ADDRESS": "23XX SPRUCE ST", "CITY": "BOULDER", "DISTRICT": "3   ", "BEAT": "3N2 " }, "geometry": { "type": "Point", "coordinates": [ -105.265295, 40.02196 ] } },
{ "type": "Feature", "properties": { "OBJECTID": 1970470, "REPORTNUM": 1970470, "NUMBIKESSTOLEN": 1, "STOLENVALUE": 8843.0, "NUMBIKESRECOVERED": 0, "RECOVEREDVALUE": 0.0, "ARREST": "No", "REPORTYEAR": 2019, "REPORTDATE": "2019-02-22T17:12:00Z", "ADDRESS": "12XX QUINCE AVE", "CITY": "BOULDER", "DISTRICT": "1   ", "BEAT": "1N4 " }, "geometry": { "type": "Point", "coordinates": [ -105.281844, 40.048012 ] } },
{ "type": "Feature", "properties": { "OBJECTID": 1970479, "REPORTNUM": 1970479, "NUMBIKESSTOLEN": 1, "STOLENVALUE": 500.0, "NUMBIKESRECOVERED": 0, "RECOVEREDVALUE": 0.0, "ARREST": "No", "REPORTYEAR": 2019, "REPORTDATE": "2019-02-23T03:28:00Z", "ADDRESS": "NORTH ST/13TH ST", "CITY": "BOULDER", "DISTRICT": "1   ", "BEAT": "1N6 " }, "geometry": { "type": "Point", "coordinates": [ -105.280563, 40.024517 ] } },
{ "type": "Feature", "properties": { "OBJECTID": 1970480, "REPORTNUM": 1970480, "NUMBIKESSTOLEN": 1, "STOLENVALUE": 1200.0, "NUMBIKESRECOVERED": 0, "RECOVEREDVALUE": 0.0, "ARREST": "No", "REPORTYEAR": 2019, "REPORTDATE": "2019-02-23T16:34:00Z", "ADDRESS": "32XX WALNUT ST", "CITY": "BOULDER", "DISTRICT": "2   ", "BEAT": "2N5 " }, "geometry": { "type": "Point", "coordinates": [ -105.251394, 40.020109 ] } },
{ "type": "Feature", "properties": { "OBJECTID": 1970484, "REPORTNUM": 1970484, "NUMBIKESSTOLEN": 1, "STOLENVALUE": 1500.0, "NUMBIKESRECOVERED": 0, "RECOVEREDVALUE": 0.0, "ARREST": "No", "REPORTYEAR": 2019, "REPORTDATE": "2019-02-23T20:09:00Z", "ADDRESS": "15XX MAPLETON AVE", "CITY": "BOULDER", "DISTRICT": "1   ", "BEAT": "1N6 " }, "geometry": { "type": "Point", "coordinates": [ -105.276964, 40.021726 ] } },
{ "type": "Feature", "properties": { "OBJECTID": 1970487, "REPORTNUM": 1970487, "NUMBIKESSTOLEN": 1, "STOLENVALUE": 500.0, "NUMBIKESRECOVERED": 0, "RECOVEREDVALUE": 0.0, "ARREST": "No", "REPORTYEAR": 2019, "REPORTDATE": "2019-02-24T04:39:00Z", "ADDRESS": "6XX 30TH ST", "CITY": "BOULDER", "DISTRICT": "4   ", "BEAT": "4N1 " }, "geometry": { "type": "Point", "coordinates": [ -105.252968, 39.998427 ] } },
{ "type": "Feature", "properties": { "OBJECTID": 1970489, "REPORTNUM": 1970489, "NUMBIKESSTOLEN": 2, "STOLENVALUE": 4000.0, "NUMBIKESRECOVERED": 0, "RECOVEREDVALUE": 0.0, "ARREST": "No", "REPORTYEAR": 2019, "REPORTDATE": "2019-02-24T22:14:00Z", "ADDRESS": "43XX DARLEY AVE", "CITY": "BOULDER", "DISTRICT": "5   ", "BEAT": "5N5 " }, "geometry": { "type": "Point", "coordinates": [ -105.244676, 39.981356 ] } },
{ "type": "Feature", "properties": { "OBJECTID": 1970490, "REPORTNUM": 1970490, "NUMBIKESSTOLEN": 1, "STOLENVALUE": 1000.0, "NUMBIKESRECOVERED": 0, "RECOVEREDVALUE": 0.0, "ARREST": "No", "REPORTYEAR": 2019, "REPORTDATE": "2019-02-25T03:05:00Z", "ADDRESS": "11XX PENNSYLVANIA AVE", "CITY": "BOULDER", "DISTRICT": "3C  ", "BEAT": "3H5 " }, "geometry": { "type": "Point", "coordinates": [ -105.278668, 40.008663 ] } },
{ "type": "Feature", "properties": { "OBJECTID": 1970496, "REPORTNUM": 1970496, "NUMBIKESSTOLEN": 1, "STOLENVALUE": 5000.0, "NUMBIKESRECOVERED": 0, "RECOVEREDVALUE": 0.0, "ARREST": "No", "REPORTYEAR": 2019, "REPORTDATE": "2019-02-25T18:14:00Z", "ADDRESS": "31XX 10TH ST", "CITY": "BOULDER", "DISTRICT": "1   ", "BEAT": "1N5 " }, "geometry": { "type": "Point", "coordinates": [ -105.284479, 40.031773 ] } },
{ "type": "Feature", "properties": { "OBJECTID": 1970500, "REPORTNUM": 1970500, "NUMBIKESSTOLEN": 1, "STOLENVALUE": 634.0, "NUMBIKESRECOVERED": 0, "RECOVEREDVALUE": 0.0, "ARREST": "No", "REPORTYEAR": 2019, "REPORTDATE": "2019-02-26T01:13:00Z", "ADDRESS": "27XX 28TH ST", "CITY": "BOULDER", "DISTRICT": "1   ", "BEAT": "1N6 " }, "geometry": { "type": "Point", "coordinates": [ -105.25843, 40.027173 ] } },
{ "type": "Feature", "properties": { "OBJECTID": 1970501, "REPORTNUM": 1970501, "NUMBIKESSTOLEN": 1, "STOLENVALUE": 1000.0, "NUMBIKESRECOVERED": 0, "RECOVEREDVALUE": 0.0, "ARREST": "No", "REPORTYEAR": 2019, "REPORTDATE": "2019-02-26T04:43:00Z", "ADDRESS": "9XX PEARL ST", "CITY": "BOULDER", "DISTRICT": "3M  ", "BEAT": "3M  " }, "geometry": { "type": "Point", "coordinates": [ -105.283554, 40.017175 ] } },
{ "type": "Feature", "properties": { "OBJECTID": 1970504, "REPORTNUM": 1970504, "NUMBIKESSTOLEN": 1, "STOLENVALUE": 750.0, "NUMBIKESRECOVERED": 0, "RECOVEREDVALUE": 0.0, "ARREST": "No", "REPORTYEAR": 2019, "REPORTDATE": "2019-02-26T19:24:00Z", "ADDRESS": "12XX EAST RIDGE AVE", "CITY": "BOULDER", "DISTRICT": "4   ", "BEAT": "4N1 " }, "geometry": { "type": "Point", "coordinates": [ -105.254079, 40.008294 ] } },
{ "type": "Feature", "properties": { "OBJECTID": 1970521, "REPORTNUM": 1970521, "NUMBIKESSTOLEN": 1, "STOLENVALUE": 1500.0, "NUMBIKESRECOVERED": 0, "RECOVEREDVALUE": 0.0, "ARREST": "No", "REPORTYEAR": 2019, "REPORTDATE": "2019-02-27T18:46:00Z", "ADDRESS": "20XX 14TH ST", "CITY": "BOULDER", "DISTRICT": "3M  ", "BEAT": "3M  " }, "geometry": { "type": "Point", "coordinates": [ -105.277439, 40.018776 ] } },
{ "type": "Feature", "properties": { "OBJECTID": 1970526, "REPORTNUM": 1970526, "NUMBIKESSTOLEN": 1, "STOLENVALUE": 500.0, "NUMBIKESRECOVERED": 0, "RECOVEREDVALUE": 0.0, "ARREST": "No", "REPORTYEAR": 2019, "REPORTDATE": "2019-02-28T18:49:00Z", "ADDRESS": "8XX 28TH ST", "CITY": "BOULDER", "DISTRICT": "3   ", "BEAT": "CU  " }, "geometry": { "type": "Point", "coordinates": [ -105.258695, 40.002883 ] } },
{ "type": "Feature", "properties": { "OBJECTID": 1970533, "REPORTNUM": 1970533, "NUMBIKESSTOLEN": 1, "STOLENVALUE": 6400.0, "NUMBIKESRECOVERED": 0, "RECOVEREDVALUE": 0.0, "ARREST": "No", "REPORTYEAR": 2019, "REPORTDATE": "2019-03-01T02:37:00Z", "ADDRESS": "9TH ST/WALNUT ST", "CITY": "BOULDER", "DISTRICT": "3   ", "BEAT": "3N1 " }, "geometry": { "type": "Point", "coordinates": [ -105.283601, 40.016063 ] } },
{ "type": "Feature", "properties": { "OBJECTID": 1970561, "REPORTNUM": 1970561, "NUMBIKESSTOLEN": 1, "STOLENVALUE": 500.0, "NUMBIKESRECOVERED": 0, "RECOVEREDVALUE": 0.0, "ARREST": "No", "REPORTYEAR": 2019, "REPORTDATE": "2019-03-04T19:26:00Z", "ADDRESS": "9XX E MOORHEAD CIR", "CITY": "BOULDER", "DISTRICT": "5   ", "BEAT": "5N5 " }, "geometry": { "type": "Point", "coordinates": [ -105.23577, 39.980113 ] } },
{ "type": "Feature", "properties": { "OBJECTID": 1970567, "REPORTNUM": 1970567, "NUMBIKESSTOLEN": 1, "STOLENVALUE": 300.0, "NUMBIKESRECOVERED": 0, "RECOVEREDVALUE": 0.0, "ARREST": "No", "REPORTYEAR": 2019, "REPORTDATE": "2019-03-05T14:06:00Z", "ADDRESS": "39XX TABLE MESA DR", "CITY": "BOULDER", "DISTRICT": "5   ", "BEAT": "5N5 " }, "geometry": { "type": "Point", "coordinates": [ -105.248251, 39.985786 ] } },
{ "type": "Feature", "properties": { "OBJECTID": 1970569, "REPORTNUM": 1970569, "NUMBIKESSTOLEN": 1, "STOLENVALUE": 899.0, "NUMBIKESRECOVERED": 0, "RECOVEREDVALUE": 0.0, "ARREST": "No", "REPORTYEAR": 2019, "REPORTDATE": "2019-03-05T17:21:00Z", "ADDRESS": "51XX VALMONT RD", "CITY": "BOULDER", "DISTRICT": "2   ", "BEAT": "2N4 " }, "geometry": { "type": "Point", "coordinates": [ -105.23437, 40.029202 ] } },
{ "type": "Feature", "properties": { "OBJECTID": 1970576, "REPORTNUM": 1970576, "NUMBIKESSTOLEN": 1, "STOLENVALUE": 1400.0, "NUMBIKESRECOVERED": 0, "RECOVEREDVALUE": 0.0, "ARREST": "No", "REPORTYEAR": 2019, "REPORTDATE": "2019-03-06T00:51:00Z", "ADDRESS": "48XX EDISON AVE", "CITY": "BOULDER", "DISTRICT": "2   ", "BEAT": "2N4 " }, "geometry": { "type": "Point", "coordinates": [ -105.240949, 40.030998 ] } },
{ "type": "Feature", "properties": { "OBJECTID": 1970580, "REPORTNUM": 1970580, "NUMBIKESSTOLEN": 1, "STOLENVALUE": 1000.0, "NUMBIKESRECOVERED": 0, "RECOVEREDVALUE": 0.0, "ARREST": "No", "REPORTYEAR": 2019, "REPORTDATE": "2019-03-06T16:36:00Z", "ADDRESS": "30TH ST/ONEAL PKWY", "CITY": "BOULDER", "DISTRICT": "2   ", "BEAT": "2N2 " }, "geometry": { "type": "Point", "coordinates": [ -105.253727, 40.033742 ] } },
{ "type": "Feature", "properties": { "OBJECTID": 1970585, "REPORTNUM": 1970585, "NUMBIKESSTOLEN": 1, "STOLENVALUE": 630.0, "NUMBIKESRECOVERED": 0, "RECOVEREDVALUE": 0.0, "ARREST": "No", "REPORTYEAR": 2019, "REPORTDATE": "2019-03-06T17:40:00Z", "ADDRESS": "33XX MADISON AVE", "CITY": "BOULDER", "DISTRICT": "4   ", "BEAT": "4N2 " }, "geometry": { "type": "Point", "coordinates": [ -105.249748, 40.005964 ] } },
{ "type": "Feature", "properties": { "OBJECTID": 1970586, "REPORTNUM": 1970586, "NUMBIKESSTOLEN": 1, "STOLENVALUE": 1800.0, "NUMBIKESRECOVERED": 0, "RECOVEREDVALUE": 0.0, "ARREST": "No", "REPORTYEAR": 2019, "REPORTDATE": "2019-03-06T19:09:00Z", "ADDRESS": "18XX SUMAC AVE", "CITY": "BOULDER", "DISTRICT": "1   ", "BEAT": "1N4 " }, "geometry": { "type": "Point", "coordinates": [ -105.272783, 40.050831 ] } },
{ "type": "Feature", "properties": { "OBJECTID": 1970593, "REPORTNUM": 1970593, "NUMBIKESSTOLEN": 1, "STOLENVALUE": 1000.0, "NUMBIKESRECOVERED": 0, "RECOVEREDVALUE": 0.0, "ARREST": "No", "REPORTYEAR": 2019, "REPORTDATE": "2019-03-07T21:42:00Z", "ADDRESS": "9XX PLEASANT ST", "CITY": "BOULDER", "DISTRICT": "3C  ", "BEAT": "3H2 " }, "geometry": { "type": "Point", "coordinates": [ -105.280829, 40.009476 ] } },
{ "type": "Feature", "properties": { "OBJECTID": 1970596, "REPORTNUM": 1970596, "NUMBIKESSTOLEN": 1, "STOLENVALUE": 3000.0, "NUMBIKESRECOVERED": 0, "RECOVEREDVALUE": 0.0, "ARREST": "No", "REPORTYEAR": 2019, "REPORTDATE": "2019-03-08T01:55:00Z", "ADDRESS": "7XX 35TH ST", "CITY": "BOULDER", "DISTRICT": "4   ", "BEAT": "4N2 " }, "geometry": { "type": "Point", "coordinates": [ -105.248406, 40.000299 ] } },
{ "type": "Feature", "properties": { "OBJECTID": 1970603, "REPORTNUM": 1970603, "NUMBIKESSTOLEN": 1, "STOLENVALUE": 2000.0, "NUMBIKESRECOVERED": 0, "RECOVEREDVALUE": 0.0, "ARREST": "No", "REPORTYEAR": 2019, "REPORTDATE": "2019-03-08T19:26:00Z", "ADDRESS": "9XX 28TH ST", "CITY": "BOULDER", "DISTRICT": "4   ", "BEAT": "4N1 " }, "geometry": { "type": "Point", "coordinates": [ -105.258549, 40.005927 ] } },
{ "type": "Feature", "properties": { "OBJECTID": 1970605, "REPORTNUM": 1970605, "NUMBIKESSTOLEN": 1, "STOLENVALUE": 849.0, "NUMBIKESRECOVERED": 0, "RECOVEREDVALUE": 0.0, "ARREST": "No", "REPORTYEAR": 2019, "REPORTDATE": "2019-03-09T03:23:00Z", "ADDRESS": "8XX NORTH ST", "CITY": "BOULDER", "DISTRICT": "1   ", "BEAT": "1N5 " }, "geometry": { "type": "Point", "coordinates": [ -105.286654, 40.024598 ] } },
{ "type": "Feature", "properties": { "OBJECTID": 1970616, "REPORTNUM": 1970616, "NUMBIKESSTOLEN": 1, "STOLENVALUE": 1000.0, "NUMBIKESRECOVERED": 0, "RECOVEREDVALUE": 0.0, "ARREST": "No", "REPORTYEAR": 2019, "REPORTDATE": "2019-03-10T17:15:00Z", "ADDRESS": "MOHAWK DR/BASELINE RD", "CITY": "BOULDER", "DISTRICT": "4   ", "BEAT": "4N2 " }, "geometry": { "type": "Point", "coordinates": [ -105.23636, 40.000054 ] } },
{ "type": "Feature", "properties": { "OBJECTID": 1970619, "REPORTNUM": 1970619, "NUMBIKESSTOLEN": 1, "STOLENVALUE": 250.0, "NUMBIKESRECOVERED": 0, "RECOVEREDVALUE": 0.0, "ARREST": "No", "REPORTYEAR": 2019, "REPORTDATE": "2019-03-10T19:22:00Z", "ADDRESS": "18XX 30TH ST", "CITY": "BOULDER", "DISTRICT": "2   ", "BEAT": "2N5 " }, "geometry": { "type": "Point", "coordinates": [ -105.253702, 40.019931 ] } },
{ "type": "Feature", "properties": { "OBJECTID": 1970621, "REPORTNUM": 1970621, "NUMBIKESSTOLEN": 1, "STOLENVALUE": 150.0, "NUMBIKESRECOVERED": 0, "RECOVEREDVALUE": 0.0, "ARREST": "No", "REPORTYEAR": 2019, "REPORTDATE": "2019-03-10T21:50:00Z", "ADDRESS": "14XX PEARL ST", "CITY": "BOULDER", "DISTRICT": "3M  ", "BEAT": "3M  " }, "geometry": { "type": "Point", "coordinates": [ -105.277357, 40.018421 ] } },
{ "type": "Feature", "properties": { "OBJECTID": 1970626, "REPORTNUM": 1970626, "NUMBIKESSTOLEN": 1, "STOLENVALUE": 1740.0, "NUMBIKESRECOVERED": 0, "RECOVEREDVALUE": 0.0, "ARREST": "No", "REPORTYEAR": 2019, "REPORTDATE": "2019-03-11T17:14:00Z", "ADDRESS": "19XX 18TH ST", "CITY": "BOULDER", "DISTRICT": "3   ", "BEAT": "3N2 " }, "geometry": { "type": "Point", "coordinates": [ -105.271834, 40.018855 ] } },
{ "type": "Feature", "properties": { "OBJECTID": 1970632, "REPORTNUM": 1970632, "NUMBIKESSTOLEN": 1, "STOLENVALUE": 800.0, "NUMBIKESRECOVERED": 0, "RECOVEREDVALUE": 0.0, "ARREST": "No", "REPORTYEAR": 2019, "REPORTDATE": "2019-03-11T22:57:00Z", "ADDRESS": "36XX CHASE CT", "CITY": "BOULDER", "DISTRICT": "5   ", "BEAT": "5N2 " }, "geometry": { "type": "Point", "coordinates": [ -105.248488, 39.991996 ] } },
{ "type": "Feature", "properties": { "OBJECTID": 1970634, "REPORTNUM": 1970634, "NUMBIKESSTOLEN": 1, "STOLENVALUE": 1500.0, "NUMBIKESRECOVERED": 0, "RECOVEREDVALUE": 0.0, "ARREST": "No", "REPORTYEAR": 2019, "REPORTDATE": "2019-03-11T23:47:00Z", "ADDRESS": "36XX CHASE CT", "CITY": "BOULDER", "DISTRICT": "5   ", "BEAT": "5N2 " }, "geometry": { "type": "Point", "coordinates": [ -105.248488, 39.991996 ] } },
{ "type": "Feature", "properties": { "OBJECTID": 1970642, "REPORTNUM": 1970642, "NUMBIKESSTOLEN": 1, "STOLENVALUE": 400.0, "NUMBIKESRECOVERED": 0, "RECOVEREDVALUE": 0.0, "ARREST": "No", "REPORTYEAR": 2019, "REPORTDATE": "2019-03-12T02:45:00Z", "ADDRESS": "9XX PORTLAND PL", "CITY": "BOULDER", "DISTRICT": "1   ", "BEAT": "1N5 " }, "geometry": { "type": "Point", "coordinates": [ -105.285458, 40.023244 ] } },
{ "type": "Feature", "properties": { "OBJECTID": 1970649, "REPORTNUM": 1970649, "NUMBIKESSTOLEN": 1, "STOLENVALUE": 1500.0, "NUMBIKESRECOVERED": 0, "RECOVEREDVALUE": 0.0, "ARREST": "No", "REPORTYEAR": 2019, "REPORTDATE": "2019-03-13T05:37:00Z", "ADDRESS": "28XX VALMONT RD", "CITY": "BOULDER", "DISTRICT": "2   ", "BEAT": "2N2 " }, "geometry": { "type": "Point", "coordinates": [ -105.257323, 40.029115 ] } },
{ "type": "Feature", "properties": { "OBJECTID": 1970652, "REPORTNUM": 1970652, "NUMBIKESSTOLEN": 1, "STOLENVALUE": 600.0, "NUMBIKESRECOVERED": 0, "RECOVEREDVALUE": 0.0, "ARREST": "No", "REPORTYEAR": 2019, "REPORTDATE": "2019-03-14T00:42:00Z", "ADDRESS": "14XX WALNUT ST", "CITY": "BOULDER", "DISTRICT": "3M  ", "BEAT": "3M  " }, "geometry": { "type": "Point", "coordinates": [ -105.277016, 40.017397 ] } },
{ "type": "Feature", "properties": { "OBJECTID": 1970653, "REPORTNUM": 1970653, "NUMBIKESSTOLEN": 1, "STOLENVALUE": 1200.0, "NUMBIKESRECOVERED": 0, "RECOVEREDVALUE": 0.0, "ARREST": "No", "REPORTYEAR": 2019, "REPORTDATE": "2019-03-13T20:07:00Z", "ADDRESS": "4XX UNIVERSITY AVE", "CITY": "BOULDER", "DISTRICT": "3   ", "BEAT": "3N3 " }, "geometry": { "type": "Point", "coordinates": [ -105.289716, 40.010407 ] } },
{ "type": "Feature", "properties": { "OBJECTID": 1970656, "REPORTNUM": 1970656, "NUMBIKESSTOLEN": 2, "STOLENVALUE": 22000.0, "NUMBIKESRECOVERED": 0, "RECOVEREDVALUE": 0.0, "ARREST": "No", "REPORTYEAR": 2019, "REPORTDATE": "2019-03-15T14:07:00Z", "ADDRESS": "32XX CARBON PL", "CITY": "BOULDER", "DISTRICT": "2   ", "BEAT": "2N5 " }, "geometry": { "type": "Point", "coordinates": [ -105.251955, 40.026384 ] } },
{ "type": "Feature", "properties": { "OBJECTID": 1970666, "REPORTNUM": 1970666, "NUMBIKESSTOLEN": 1, "STOLENVALUE": 1700.0, "NUMBIKESRECOVERED": 0, "RECOVEREDVALUE": 0.0, "ARREST": "No", "REPORTYEAR": 2019, "REPORTDATE": "2019-03-15T16:30:00Z", "ADDRESS": "27XX VALMONT RD", "CITY": "BOULDER", "DISTRICT": "1   ", "BEAT": "1N6 " }, "geometry": { "type": "Point", "coordinates": [ -105.260711, 40.02914 ] } },
{ "type": "Feature", "properties": { "OBJECTID": 1970675, "REPORTNUM": 1970675, "NUMBIKESSTOLEN": 2, "STOLENVALUE": 400.0, "NUMBIKESRECOVERED": 0, "RECOVEREDVALUE": 0.0, "ARREST": "No", "REPORTYEAR": 2019, "REPORTDATE": "2019-03-16T18:47:00Z", "ADDRESS": "13XX PEARL ST", "CITY": "BOULDER", "DISTRICT": "3M  ", "BEAT": "3M  " }, "geometry": { "type": "Point", "coordinates": [ -105.278063, 40.018274 ] } },
{ "type": "Feature", "properties": { "OBJECTID": 1970697, "REPORTNUM": 1970697, "NUMBIKESSTOLEN": 2, "STOLENVALUE": 740.0, "NUMBIKESRECOVERED": 0, "RECOVEREDVALUE": 0.0, "ARREST": "No", "REPORTYEAR": 2019, "REPORTDATE": "2019-03-18T19:30:00Z", "ADDRESS": "27XX MAPLETON AVE", "CITY": "BOULDER", "DISTRICT": "1   ", "BEAT": "1N6 " }, "geometry": { "type": "Point", "coordinates": [ -105.260155, 40.025227 ] } },
{ "type": "Feature", "properties": { "OBJECTID": 1970698, "REPORTNUM": 1970698, "NUMBIKESSTOLEN": 1, "STOLENVALUE": 250.0, "NUMBIKESRECOVERED": 0, "RECOVEREDVALUE": 0.0, "ARREST": "No", "REPORTYEAR": 2019, "REPORTDATE": "2019-03-18T20:32:00Z", "ADDRESS": "29XX EAGLE WAY", "CITY": "BOULDER", "DISTRICT": "2   ", "BEAT": "2N2 " }, "geometry": { "type": "Point", "coordinates": [ -105.254208, 40.031175 ] } },
{ "type": "Feature", "properties": { "OBJECTID": 1970701, "REPORTNUM": 1970701, "NUMBIKESSTOLEN": 1, "STOLENVALUE": 360.0, "NUMBIKESRECOVERED": 0, "RECOVEREDVALUE": 0.0, "ARREST": "No", "REPORTYEAR": 2019, "REPORTDATE": "2019-03-18T21:13:00Z", "ADDRESS": "22XX GROVE CIR E", "CITY": "BOULDER", "DISTRICT": "3C  ", "BEAT": "3N5 " }, "geometry": { "type": "Point", "coordinates": [ -105.265294, 40.015401 ] } },
{ "type": "Feature", "properties": { "OBJECTID": 1970707, "REPORTNUM": 1970707, "NUMBIKESSTOLEN": 1, "STOLENVALUE": 40.0, "NUMBIKESRECOVERED": 1, "RECOVEREDVALUE": 40.0, "ARREST": "No", "REPORTYEAR": 2019, "REPORTDATE": "2019-03-19T18:00:00Z", "ADDRESS": "30TH ST/COLORADO AVE", "CITY": "BOULDER", "DISTRICT": "4   ", "BEAT": "4N1 " }, "geometry": { "type": "Point", "coordinates": [ -105.253425, 40.00742 ] } },
{ "type": "Feature", "properties": { "OBJECTID": 1970709, "REPORTNUM": 1970709, "NUMBIKESSTOLEN": 1, "STOLENVALUE": 450.0, "NUMBIKESRECOVERED": 0, "RECOVEREDVALUE": 0.0, "ARREST": "No", "REPORTYEAR": 2019, "REPORTDATE": "2019-03-19T20:01:00Z", "ADDRESS": "29XX BASELINE RD", "CITY": "BOULDER", "DISTRICT": "4   ", "BEAT": "4N1 " }, "geometry": { "type": "Point", "coordinates": [ -105.255441, 40.000144 ] } },
{ "type": "Feature", "properties": { "OBJECTID": 1970711, "REPORTNUM": 1970711, "NUMBIKESSTOLEN": 1, "STOLENVALUE": 500.0, "NUMBIKESRECOVERED": 0, "RECOVEREDVALUE": 0.0, "ARREST": "No", "REPORTYEAR": 2019, "REPORTDATE": "2019-03-19T20:53:00Z", "ADDRESS": "28XX WILDERNESS PL", "CITY": "BOULDER", "DISTRICT": "2   ", "BEAT": "2N5 " }, "geometry": { "type": "Point", "coordinates": [ -105.248388, 40.02624 ] } },
{ "type": "Feature", "properties": { "OBJECTID": 1970713, "REPORTNUM": 1970713, "NUMBIKESSTOLEN": 1, "STOLENVALUE": 1086.32, "NUMBIKESRECOVERED": 0, "RECOVEREDVALUE": 0.0, "ARREST": "No", "REPORTYEAR": 2019, "REPORTDATE": "2019-03-20T05:41:00Z", "ADDRESS": "8XX E MOORHEAD CIR", "CITY": "BOULDER             ", "DISTRICT": "5   ", "BEAT": "5N5 " }, "geometry": { "type": "Point", "coordinates": [ -105.23576, 39.981438 ] } },
{ "type": "Feature", "properties": { "OBJECTID": 1970716, "REPORTNUM": 1970716, "NUMBIKESSTOLEN": 1, "STOLENVALUE": 100.0, "NUMBIKESRECOVERED": 0, "RECOVEREDVALUE": 0.0, "ARREST": "No", "REPORTYEAR": 2019, "REPORTDATE": "2019-03-20T15:02:00Z", "ADDRESS": "27XX 28TH ST", "CITY": "BOULDER", "DISTRICT": "1   ", "BEAT": "1N6 " }, "geometry": { "type": "Point", "coordinates": [ -105.258427, 40.026881 ] } },
{ "type": "Feature", "properties": { "OBJECTID": 1970723, "REPORTNUM": 1970723, "NUMBIKESSTOLEN": 1, "STOLENVALUE": 663.0, "NUMBIKESRECOVERED": 0, "RECOVEREDVALUE": 0.0, "ARREST": "No", "REPORTYEAR": 2019, "REPORTDATE": "2019-03-20T23:47:00Z", "ADDRESS": "PEARL ST/11TH ST", "CITY": "BOULDER", "DISTRICT": "3M  ", "BEAT": "3M  " }, "geometry": { "type": "Point", "coordinates": [ -105.281294, 40.017593 ] } },
{ "type": "Feature", "properties": { "OBJECTID": 1970731, "REPORTNUM": 1970731, "NUMBIKESSTOLEN": 1, "STOLENVALUE": 250.0, "NUMBIKESRECOVERED": 0, "RECOVEREDVALUE": 0.0, "ARREST": "No", "REPORTYEAR": 2019, "REPORTDATE": "2019-03-21T19:59:00Z", "ADDRESS": "17TH ST/MARINE ST", "CITY": "BOULDER", "DISTRICT": "3   ", "BEAT": "3N6 " }, "geometry": { "type": "Point", "coordinates": [ -105.272584, 40.013601 ] } },
{ "type": "Feature", "properties": { "OBJECTID": 1970739, "REPORTNUM": 1970739, "NUMBIKESSTOLEN": 1, "STOLENVALUE": 150.0, "NUMBIKESRECOVERED": 0, "RECOVEREDVALUE": 0.0, "ARREST": "No", "REPORTYEAR": 2019, "REPORTDATE": "2019-03-22T16:24:00Z", "ADDRESS": "5XX 27TH WAY", "CITY": "BOULDER", "DISTRICT": "5   ", "BEAT": "5N2 " }, "geometry": { "type": "Point", "coordinates": [ -105.260202, 39.997835 ] } },
{ "type": "Feature", "properties": { "OBJECTID": 1970741, "REPORTNUM": 1970741, "NUMBIKESSTOLEN": 1, "STOLENVALUE": 50.0, "NUMBIKESRECOVERED": 0, "RECOVEREDVALUE": 0.0, "ARREST": "No", "REPORTYEAR": 2019, "REPORTDATE": "2019-03-22T17:20:00Z", "ADDRESS": "5XX 27TH WAY", "CITY": "BOULDER", "DISTRICT": "5   ", "BEAT": "5N2 " }, "geometry": { "type": "Point", "coordinates": [ -105.260202, 39.997835 ] } },
{ "type": "Feature", "properties": { "OBJECTID": 1970770, "REPORTNUM": 1970770, "NUMBIKESSTOLEN": 1, "STOLENVALUE": 450.0, "NUMBIKESRECOVERED": 0, "RECOVEREDVALUE": 0.0, "ARREST": "No", "REPORTYEAR": 2019, "REPORTDATE": "2019-03-27T15:38:00Z", "ADDRESS": "23XX SPRUCE ST", "CITY": "BOULDER", "DISTRICT": "3   ", "BEAT": "3N2 " }, "geometry": { "type": "Point", "coordinates": [ -105.265458, 40.021983 ] } },
{ "type": "Feature", "properties": { "OBJECTID": 1970773, "REPORTNUM": 1970773, "NUMBIKESSTOLEN": 1, "STOLENVALUE": 800.0, "NUMBIKESRECOVERED": 0, "RECOVEREDVALUE": 0.0, "ARREST": "No", "REPORTYEAR": 2019, "REPORTDATE": "2019-03-27T18:22:00Z", "ADDRESS": "14TH ST/CANYON BLVD", "CITY": "BOULDER", "DISTRICT": "3M  ", "BEAT": "3M  " }, "geometry": { "type": "Point", "coordinates": [ -105.276647, 40.016415 ] } },
{ "type": "Feature", "properties": { "OBJECTID": 1970776, "REPORTNUM": 1970776, "NUMBIKESSTOLEN": 1, "STOLENVALUE": 1600.0, "NUMBIKESRECOVERED": 0, "RECOVEREDVALUE": 0.0, "ARREST": "No", "REPORTYEAR": 2019, "REPORTDATE": "2019-03-27T20:34:00Z", "ADDRESS": "27XX COLORADO AVE", "CITY": "BOULDER", "DISTRICT": "3   ", "BEAT": "3N6 " }, "geometry": { "type": "Point", "coordinates": [ -105.260198, 40.008259 ] } },
{ "type": "Feature", "properties": { "OBJECTID": 1970778, "REPORTNUM": 1970778, "NUMBIKESSTOLEN": 1, "STOLENVALUE": 500.0, "NUMBIKESRECOVERED": 0, "RECOVEREDVALUE": 0.0, "ARREST": "No", "REPORTYEAR": 2019, "REPORTDATE": "2019-03-28T00:35:00Z", "ADDRESS": "66XX FINLEY PL", "CITY": "BOULDER", "DISTRICT": "2   ", "BEAT": "2N1 " }, "geometry": { "type": "Point", "coordinates": [ -105.199101, 40.071306 ] } },
{ "type": "Feature", "properties": { "OBJECTID": 1970779, "REPORTNUM": 1970779, "NUMBIKESSTOLEN": 1, "STOLENVALUE": 500.0, "NUMBIKESRECOVERED": 0, "RECOVEREDVALUE": 0.0, "ARREST": "No", "REPORTYEAR": 2019, "REPORTDATE": "2019-03-28T00:27:00Z", "ADDRESS": "TABLE MESA DR/FOOTHILLS PKWY", "CITY": "BOULDER", "DISTRICT": "4   ", "BEAT": "4N4 " }, "geometry": { "type": "Point", "coordinates": [ -105.232457, 39.987022 ] } },